wmo_index,station_name,country_area,latitude_deg,longitude_deg,station_name_ja
60351,JIJEL- ACHOUAT,ALGERIA,36.8,5.883333333333333,
60353,JIJEL-PORT,ALGERIA,36.81666666666667,5.883333333333333,
60355,SKIKDA,ALGERIA,36.88333333333333,6.9,
60360,ANNABA,ALGERIA,36.833333333333336,7.816666666666666,
60368,TARF,ALGERIA,36.75,8.083333333333334,
60369,ALGER-PORT,ALGERIA,36.766666666666666,3.1,
60370,KOUBA,ALGERIA,36.71666666666667,3.1,
60371,OUED KORICHE,ALGERIA,36.78333333333333,3.033333333333333,
60372,BOUZAREAH,ALGERIA,36.78333333333333,3.0,
60374,AIN BENAIN,ALGERIA,36.78333333333333,2.8833333333333333,
60376,BORDJ EL BAHRI,ALGERIA,36.78333333333333,3.25,
60379,REGHAIA,ALGERIA,36.766666666666666,3.3333333333333335,
60380,TESSALA EL MERDJA,ALGERIA,36.61666666666667,2.9166666666666665,
60381,EL HARRACH,ALGERIA,36.71666666666667,3.15,
60390,DAR-EL-BEIDA,ALGERIA,36.68333333333333,3.216666666666667,
60393,DAR EL BEIDA VILLE,ALGERIA,36.7,3.2,
60394,BARAKI,ALGERIA,36.68333333333333,3.1,
60395,TIZI-OUZOU,ALGERIA,36.7,4.133333333333334,
60402,BEJAIA-AEROPORT,ALGERIA,36.71666666666667,5.066666666666666,
60403,GUELMA,ALGERIA,36.46666666666667,7.466666666666667,
60410,TENES,ALGERIA,36.5,1.3333333333333333,
60415,AIN-BESSAM,ALGERIA,36.28333333333333,3.6666666666666665,
60419,CONSTANTINE,ALGERIA,36.28333333333333,6.616666666666667,
60421,OUM EL BOUAGHI,ALGERIA,35.86666666666667,7.116666666666666,
60423,SOUK AHRAS,ALGERIA,36.25,7.95,
60425,CHLEF,ALGERIA,36.21666666666667,1.3333333333333333,
60430,MILIANA,ALGERIA,36.3,2.2333333333333334,
60437,MEDEA,ALGERIA,36.28333333333333,2.7333333333333334,
60444,BORDJ-BOU-ARRERIDJ,ALGERIA,36.06666666666667,4.666666666666667,
60445,SETIF/AIN ARNAT,ALGERIA,36.166666666666664,5.316666666666666,
60452,ARZEW,ALGERIA,35.81666666666667,-0.26666666666666666,
60457,MOSTAGANEM,ALGERIA,35.88333333333333,0.11666666666666667,
60461,ORAN-PORT,ALGERIA,35.7,-0.65,
60467,M'SILA,ALGERIA,35.666666666666664,4.5,
60468,BATNA,ALGERIA,35.75,6.316666666666666,
60475,TEBESSA,ALGERIA,35.46666666666667,8.116666666666667,
60476,KHENCHELLA,ALGERIA,35.46666666666667,7.083333333333333,
60490,ORAN-SENIA,ALGERIA,35.63333333333333,-0.6,
60492,RELIZANE,ALGERIA,35.75,0.6166666666666667,
60507,MASCARA-GHRISS,ALGERIA,35.35,0.15,
60511,TIARET,ALGERIA,35.35,1.4666666666666668,
60514,KSAR CHELLALA,ALGERIA,35.166666666666664,2.3166666666666664,
60515,BOU-SAADA,ALGERIA,35.333333333333336,4.2,
60517,GHAZAOUET,ALGERIA,35.1,-1.8666666666666667,
60518,BENI-SAF,ALGERIA,35.3,-1.35,
60520,SIDI-BEL-ABBES,ALGERIA,35.2,-0.6166666666666667,
60522,MAGHNIA,ALGERIA,34.81666666666667,-1.7833333333333332,
60525,BISKRA,ALGERIA,34.8,5.733333333333333,
60531,TLEMCEN-ZENATA,ALGERIA,35.016666666666666,-1.4666666666666668,
60535,DJELFA,ALGERIA,33.15,3.3833333333333333,
60536,SAIDA,ALGERIA,34.86666666666667,0.15,
60540,EL-KHEITER,ALGERIA,34.15,0.06666666666666667,
60549,MECHERIA,ALGERIA,33.53333333333333,-0.2833333333333333,
60550,EL-BAYADH,ALGERIA,33.666666666666664,1.0,
60555,TOUGGOURT,ALGERIA,33.06666666666667,6.083333333333333,
60557,NAAMA,ALGERIA,33.266666666666666,-0.3,
60559,EL-OUED,ALGERIA,33.5,6.783333333333333,
60560,AIN-SEFRA,ALGERIA,32.766666666666666,-0.6,
60563,HASSIR'MEL,ALGERIA,32.93333333333333,3.3,
60566,GHARDAIA,ALGERIA,32.4,3.8,
60571,BECHAR,ALGERIA,31.5,-2.25,
60580,OUARGLA,ALGERIA,31.933333333333334,5.4,
60581,HASSI-MESSAOUD,ALGERIA,31.666666666666668,6.15,
60590,EL-GOLEA,ALGERIA,30.566666666666666,2.8666666666666667,
60593,HASSI KHEBBI,ALGERIA,29.166666666666668,-5.233333333333333,
60595,TALMINIE,ALGERIA,29.166666666666668,-0.3,
60602,BENI-ABBES,ALGERIA,30.133333333333333,-2.1666666666666665,
60603,RHOURD NOUSS,ALGERIA,29.716666666666665,6.7,
60605,TABELBALA,ALGERIA,29.416666666666668,-3.25,
60607,TIMIMOUN,ALGERIA,29.25,0.2833333333333333,
60611,IN-AMENAS,ALGERIA,28.05,9.633333333333333,
60612,TIRIRINE,ALGERIA,22.05,8.583333333333334,
60613,OUHANET,ALGERIA,28.7,8.933333333333334,
60617,TAMAZGUIDA,ALGERIA,27.316666666666666,3.716666666666667,
60619,TAGUENTOUR,ALGERIA,28.466666666666665,2.5166666666666666,
60620,ADRAR,ALGERIA,27.816666666666666,-0.18333333333333332,
60621,MATRIOUENE,ALGERIA,27.866666666666667,1.1666666666666667,
60623,ADEB LERRACH,ALGERIA,27.4,8.833333333333334,
60624,GARADJEBILET,ALGERIA,26.75,-7.25,
60630,IN-SALAH,ALGERIA,27.233333333333334,2.5,
60633,IN ZIZA,ALGERIA,23.216666666666665,2.5833333333333335,
60639,TINFOUYE,ALGERIA,28.433333333333334,7.55,
60640,ILLIZI,ALGERIA,26.5,8.416666666666666,
60645,REGGANE,ALGERIA,26.716666666666665,-0.18333333333333332,
60650,AMGUID,ALGERIA,26.416666666666668,5.366666666666666,
60656,TINDOUF,ALGERIA,27.7,-8.166666666666666,
60660,ARAK,ALGERIA,25.266666666666666,3.7333333333333334,
60661,ABDENNIZI,ALGERIA,25.216666666666665,5.116666666666666,
60662,FADNOUNE,ALGERIA,25.816666666666666,8.183333333333334,
60663,MOULAY LAHCEN,ALGERIA,24.716666666666665,4.65,
60664,BORDJ HAOUS,ALGERIA,24.833333333333332,8.316666666666666,
60667,TINALKOUN,ALGERIA,24.6,10.216666666666667,
60670,DJANET,ALGERIA,24.266666666666666,9.466666666666667,
60672,MERTOUTEK,ALGERIA,24.216666666666665,5.533333333333333,
60673,TADANTE,ALGERIA,23.033333333333335,7.866666666666667,
60674,TAOUNDART,ALGERIA,20.383333333333333,2.466666666666667,
60675,OUALLEN,ALGERIA,23.4,1.0,
60676,IN AZZANE,ALGERIA,23.483333333333334,11.233333333333333,
60677,AFARA,ALGERIA,25.333333333333332,7.8,
60679,ASSEKREM,ALGERIA,23.266666666666666,5.633333333333333,
60680,TAMANRASSET,ALGERIA,22.8,5.433333333333334,
60681,OUED TAHAGGARET,ALGERIA,21.683333333333334,7.133333333333334,
60682,TINTARABINE,ALGERIA,23.183333333333334,6.766666666666667,
60685,BIDON 5,ALGERIA,22.316666666666666,1.1166666666666667,
60686,BORDJ-BADJ-MOKHTAR,ALGERIA,21.333333333333332,0.95,
60688,TIREK,ALGERIA,21.566666666666666,2.5833333333333335,
60689,TIMIAOUINI,ALGERIA,20.416666666666668,1.8,
60690,IN-GUEZZAM,ALGERIA,19.566666666666666,5.766666666666667,
60691,ANESBARAKA,ALGERIA,19.433333333333334,4.65,
60692,IN GUEZZAM,ALGERIA,19.566666666666666,5.75,
60693,IN ATEI,ALGERIA,20.566666666666666,6.116666666666666,
60694,IN AZAOUA,ALGERIA,20.966666666666665,7.45,
60695,TIN ZAOUATENE,ALGERIA,19.966666666666665,2.9833333333333334,
66104,CABINDA,ANGOLA,-5.55,12.183333333333334,
66116,NOQUI,ANGOLA,-5.866666666666667,13.433333333333334,
66118,NBANZA-KONGO,ANGOLA,-6.266666666666667,14.25,
66121,MAQUELA DO ZOMBO,ANGOLA,-6.033333333333333,15.116666666666667,
66130,N'ZETO (AMBRIZETE),ANGOLA,-7.233333333333333,12.866666666666667,
66136,TOTO,ANGOLA,-7.166666666666667,14.266666666666667,
66140,CARMONA,ANGOLA,-7.583333333333333,15.0,
66142,NEGAGE,ANGOLA,-7.683333333333334,15.366666666666667,
66152,DUNDO,ANGOLA,-7.4,20.816666666666666,
66160,LUANDA,ANGOLA,-8.85,13.233333333333333,
66172,N'DALATANDO,ANGOLA,-9.283333333333333,14.916666666666666,
66187,CAMAXILO,ANGOLA,-8.366666666666667,18.933333333333334,
66210,SUMBE,ANGOLA,-11.2,13.85,
66215,MALANGE,ANGOLA,-9.55,16.366666666666667,
66223,MBANZA CONGO,ANGOLA,-6.266666666666667,14.25,
66226,SAURIMO (HENRIQUE DE CARVALHO),ANGOLA,-9.65,20.4,
66240,PORTO AMBOIM,ANGOLA,-10.7,13.75,
66260,SUMBE,ANGOLA,-11.2,13.85,
66270,WAKU KUNGU (CELA),ANGOLA,-11.416666666666666,15.116666666666667,
66285,LUENA (LUSO),ANGOLA,-11.783333333333333,19.916666666666668,
66296,CAZOMBO,ANGOLA,-11.866666666666667,22.9,
66305,LOBITO,ANGOLA,-12.366666666666667,13.533333333333333,
66310,MONBACA (BENGUELA),ANGOLA,-12.583333333333334,13.416666666666666,
66318,HUAMBO (NOVA LISBOA),ANGOLA,-12.8,15.75,
66325,BIE (SILVA PORTO),ANGOLA,-12.383333333333333,16.95,
66390,LUBANGO (SA DA BANDEIRA),ANGOLA,-14.933333333333334,13.566666666666666,
66410,MENONGUE (SERPA PINTO),ANGOLA,-14.65,17.683333333333334,
66422,MOCAMEDES,ANGOLA,-15.2,12.15,
66447,MAVINGA,ANGOLA,-15.833333333333334,20.35,
66450,BAIA DOS TIGRES,ANGOLA,-16.6,11.716666666666667,
66460,PEREIRA DE ECA,ANGOLA,-17.083333333333332,15.733333333333333,
66485,ROCADAS,ANGOLA,-16.716666666666665,15.0,
65306,KANDI,BENIN,11.133333333333333,2.9333333333333336,
65319,PEPORIYAKOU-NATITINGOU,BENIN,10.316666666666666,1.3833333333333333,
65330,PARAKOU,BENIN,9.35,2.6166666666666667,
65335,SAVE,BENIN,8.033333333333333,2.466666666666667,
65338,BOHICON,BENIN,7.166666666666667,2.066666666666667,
65344,COTONOU,BENIN,6.35,2.3833333333333333,
68024,GHANZI,BOTSWANA,-21.7,21.65,
68026,SHAKAWE,BOTSWANA,-18.366666666666667,21.85,
68027,TUBU,BOTSWANA,-19.35777777777778,22.28388888888889,
68028,MABABE,BOTSWANA,-19.018055555555556,23.97,
68029,KASANE,BOTSWANA,-17.816666666666666,25.15,
68030,PANDAMATENGA,BOTSWANA,-18.533333333333335,25.633333333333333,
68031,MOREMI,BOTSWANA,-19.333333333333332,23.416666666666668,
68032,MAUN,BOTSWANA,-19.983333333333334,23.416666666666668,
68034,GWETA,BOTSWANA,-20.25,25.083333333333332,
68035,GWETA,BOTSWANA,-20.204166666666666,25.26222222222222,
68037,MAITENGWE,BOTSWANA,-20.12527777777778,27.22,
68038,SUA-PAN,BOTSWANA,-20.547222222222224,26.078333333333333,
68040,LETLHAKANE,BOTSWANA,-21.416666666666668,25.6,
68054,FRANCISTOWN,BOTSWANA,-21.323888888888888,27.469166666666666,
68070,SELEBI-PHIKWE,BOTSWANA,-22.05,27.816666666666666,
68084,XADE,BOTSWANA,-22.343888888888888,23.031388888888888,
68086,SEROWE,BOTSWANA,-22.41333333333333,26.71527777777778,
68088,BAINES DRIFT,BOTSWANA,-22.489722222222223,28.696666666666665,
68140,NCOJANE,BOTSWANA,-23.125555555555557,20.271944444444443,
68148,MAHALAPYE,BOTSWANA,-23.083333333333332,26.8,
68151,LEPHEPE,BOTSWANA,-23.364444444444445,25.8475,
68218,NGWATLE,BOTSWANA,-23.71222222222222,21.079722222222223,
68220,KHUTSE,BOTSWANA,-23.666666666666668,24.166666666666668,
68226,TSHANE,BOTSWANA,-24.016666666666666,21.883333333333333,
68228,MOTOKWE,BOTSWANA,-24.061111111111114,23.297500000000003,
68234,JWANENG,BOTSWANA,-24.6,24.666666666666668,
68240,SERETSE KHAMA INTERNATIONAL AIRPORT,BOTSWANA,-24.55,25.916666666666668,
68244,GABORONE,BOTSWANA,-24.666666666666668,25.916666666666668,
68320,WERDA,BOTSWANA,-25.266666666666666,23.25,
68325,GOOD HOPE,BOTSWANA,-25.45,25.416666666666668,
68326,VAALHOEK,BOTSWANA,-26.86722222222222,20.709444444444443,
68328,TSABONG,BOTSWANA,-26.05,22.45,
68992,BOUVET ISLAND,BOUVET ISLAND,-54.4,3.283333333333333,
65500,MARKOYE,BURKINA FASO,14.633333333333333,-0.06666666666666667,
65501,DORI,BURKINA FASO,14.033333333333333,-0.03333333333333333,
65502,OUAHIGOUYA,BURKINA FASO,13.583333333333334,-2.4333333333333336,
65503,OUAGADOUGOU,BURKINA FASO,12.35,-1.5166666666666666,
65505,DEDOUGOU,BURKINA FASO,12.466666666666667,-3.4833333333333334,
65507,FADA N'GOURMA,BURKINA FASO,12.066666666666666,0.35,
65510,BOBO-DIOULASSO,BURKINA FASO,11.166666666666666,-4.3,
65516,BOROMO,BURKINA FASO,11.733333333333333,-2.9166666666666665,
65518,PO,BURKINA FASO,11.166666666666666,-1.15,
65522,GAOUA,BURKINA FASO,10.333333333333334,-3.183333333333333,
65523,MANGODARA,BURKINA FASO,9.9,-4.35,
64390,BUJUMBURA,BURUNDI,-3.3166666666666664,29.316666666666666,
64397,MUYINGA,BURUNDI,-2.8333333333333335,30.333333333333332,
08583,MINDELO,CABO VERDE,16.83361111111111,-25.054722222222225,
08589,PRAIA,CABO VERDE,14.94111111111111,-23.484722222222224,
08594,SAL,CABO VERDE,16.741944444444446,-22.948888888888888,
64851,MAROUA-SALAK,CAMEROON,10.45,14.25,
64860,GAROUA,CAMEROON,9.333333333333334,13.383333333333333,
64870,NGAOUNDERE,CAMEROON,7.35,13.566666666666666,
64880,BANYO,CAMEROON,6.783333333333333,11.816666666666666,
64882,MEIGANGA,CAMEROON,6.533333333333333,14.366666666666667,
64890,MAMFE,CAMEROON,5.716666666666667,9.283333333333333,
64892,BAMENDA,CAMEROON,6.05,10.116666666666667,
64893,KOUNDJA,CAMEROON,5.65,10.75,
64900,YOKO,CAMEROON,5.55,12.366666666666667,
64901,BETARE-OYA,CAMEROON,5.6,14.066666666666666,
64910,DOUALA OBS.,CAMEROON,4.0,9.733333333333333,
64910,DOUALA R.S.,CAMEROON,4.016666666666667,9.7,
64911,NKONGSAMBA,CAMEROON,4.95,9.933333333333334,
64920,BAFIA,CAMEROON,4.733333333333333,11.25,
64930,BERTOUA,CAMEROON,4.6,13.733333333333333,
64931,BATOURI,CAMEROON,4.466666666666667,14.366666666666667,
64950,YAOUNDE,CAMEROON,3.8333333333333335,11.516666666666667,
64960,ABONG-MBANG,CAMEROON,3.966666666666667,13.2,
64961,LOMIE,CAMEROON,3.15,13.616666666666667,
64971,KRIBI,CAMEROON,2.95,9.9,
64600,BERBERATI,CENTRAL AFRICAN REPUBLIC,4.25,15.8,
64601,BOUAR,CENTRAL AFRICAN REPUBLIC,5.966666666666667,15.633333333333333,
64605,BOSSEMBELE,CENTRAL AFRICAN REPUBLIC,5.266666666666667,17.633333333333333,
64610,BOSSANGOA,CENTRAL AFRICAN REPUBLIC,6.483333333333333,17.433333333333334,
64650,BANGUI,CENTRAL AFRICAN REPUBLIC,4.4,18.516666666666666,
64654,N'DELE,CENTRAL AFRICAN REPUBLIC,8.4,20.65,
64655,BRIA,CENTRAL AFRICAN REPUBLIC,6.533333333333333,21.983333333333334,
64656,BANGASSOU,CENTRAL AFRICAN REPUBLIC,4.733333333333333,22.833333333333332,
64658,BIRAO,CENTRAL AFRICAN REPUBLIC,10.283333333333333,22.783333333333335,
64659,OBO,CENTRAL AFRICAN REPUBLIC,5.4,26.5,
64660,BAMBARI,CENTRAL AFRICAN REPUBLIC,5.85,20.65,
64661,YALINGA,CENTRAL AFRICAN REPUBLIC,6.5,23.266666666666666,
64662,ALINDAO,CENTRAL AFRICAN REPUBLIC,5.05,21.2,
64665,MOBAYE,CENTRAL AFRICAN REPUBLIC,4.316666666666666,21.183333333333334,
64700,NDJAMENA,CHAD,12.133333333333333,15.033333333333333,
64701,MAO,CHAD,14.116666666666667,15.316666666666666,
64702,BOL-BERIM,CHAD,13.433333333333334,14.733333333333333,
64705,BOUSSO,CHAD,10.483333333333333,16.716666666666665,
64706,MOUNDOU,CHAD,8.566666666666666,16.066666666666666,
64707,MOUSSORO,CHAD,13.65,16.5,
64708,BOKORO,CHAD,12.383333333333333,17.05,
64709,PALA,CHAD,9.366666666666667,14.966666666666667,
64750,SARH,CHAD,9.15,18.383333333333333,
64751,ATI,CHAD,13.216666666666667,18.316666666666666,
64753,FAYA,CHAD,18.0,19.166666666666668,
64754,AM-TIMAN,CHAD,11.033333333333333,20.283333333333335,
64755,GOZ-BEIDA,CHAD,12.233333333333333,21.416666666666668,
64756,ABECHE,CHAD,13.85,20.85,
64757,FADA,CHAD,17.166666666666668,21.55,
64758,MONGO,CHAD,12.183333333333334,18.683333333333334,
67001,MORONI AIRPORT (GRANDE-COMORE),COMOROS,-11.7,43.233333333333334,
67002,HAHAYA INT. AIRPORT,COMOROS,-11.533333333333333,43.266666666666666,
67004,OUANI (ANJOUAN),COMOROS,-12.116666666666667,44.43333333333333,
67005,PAMANDZI (MAYOTTE),COMOROS,-12.805555555555557,45.282777777777774,
64400,POINTE-NOIRE,CONGO,-4.816666666666666,11.9,
64401,DOLISIE,CONGO,-4.2,12.7,
64402,MOUYONDZI,CONGO,-4.0,13.95,
64403,MAKABANA,CONGO,-3.4833333333333334,12.616666666666667,
64405,SIBITI,CONGO,-3.6833333333333336,13.35,
64450,BRAZZAVILLE /MAYA-MAYA,CONGO,-4.25,15.25,
64452,M'POUYA,CONGO,-2.6166666666666667,16.216666666666665,
64453,DJAMBALA,CONGO,-2.533333333333333,14.766666666666667,
64454,GAMBOMA,CONGO,-1.9,15.85,
64456,MAKOUA,CONGO,-0.016666666666666666,15.65,
64458,OUESSO,CONGO,1.6166666666666667,16.05,
64459,IMPFONDO,CONGO,1.6166666666666667,18.066666666666666,
64460,SOUANKE,CONGO,2.066666666666667,14.033333333333333,
64462,KELLE,CONGO,0.1,13.55,
64463,EWO,CONGO,-5.583333333333333,14.816666666666666,
65528,ODIENNE,COTE D'IVOIRE,9.5,-7.566666666666666,
65536,KORHOGO,COTE D'IVOIRE,9.416666666666666,-5.616666666666667,
65545,BONDOUKOU,COTE D'IVOIRE,8.05,-2.783333333333333,
65548,MAN,COTE D'IVOIRE,7.383333333333334,-7.516666666666667,
65555,BOUAKE,COTE D'IVOIRE,7.733333333333333,-5.066666666666666,
65557,GAGNOA,COTE D'IVOIRE,6.133333333333334,-5.95,
65560,DALOA,COTE D'IVOIRE,6.866666666666667,-6.466666666666667,
65562,DIMBOKRO,COTE D'IVOIRE,6.65,-4.7,
65563,YAMOUSSOUKRO,COTE D'IVOIRE,6.9,-5.35,
65578,ABIDJAN,COTE D'IVOIRE,5.25,-3.9333333333333336,
65585,ADIAKE,COTE D'IVOIRE,5.3,-3.3,
65592,TABOU,COTE D'IVOIRE,4.416666666666667,-7.366666666666666,
65594,SAN PEDRO,COTE D'IVOIRE,4.75,-6.65,
65599,SASSANDRA,COTE D'IVOIRE,4.95,-6.083333333333333,
64005,MBANDAKA,DEMOCRATIC REPUBLIC OF THE CONGO,0.05,18.266666666666666,
64006,GEMENA,DEMOCRATIC REPUBLIC OF THE CONGO,3.283333333333333,19.783333333333335,
64008,BASANKUSU,DEMOCRATIC REPUBLIC OF THE CONGO,1.2166666666666668,19.8,
64014,LISALA,DEMOCRATIC REPUBLIC OF THE CONGO,2.3166666666666664,21.566666666666666,
64015,LIBENGE,DEMOCRATIC REPUBLIC OF THE CONGO,3.6333333333333333,18.633333333333333,
64016,BUMBA,DEMOCRATIC REPUBLIC OF THE CONGO,2.183333333333333,22.55,
64018,BASOKO,DEMOCRATIC REPUBLIC OF THE CONGO,1.25,23.6,
64021,BONDO,DEMOCRATIC REPUBLIC OF THE CONGO,3.8,23.816666666666666,
64034,BUTA,DEMOCRATIC REPUBLIC OF THE CONGO,2.783333333333333,24.783333333333335,
64040,KISANGANI,DEMOCRATIC REPUBLIC OF THE CONGO,0.5166666666666667,25.183333333333334,
64056,BAFWASENDE,DEMOCRATIC REPUBLIC OF THE CONGO,1.0833333333333333,27.133333333333333,
64062,ISIRO,DEMOCRATIC REPUBLIC OF THE CONGO,2.7666666666666666,27.65,
64071,MAMBASA,DEMOCRATIC REPUBLIC OF THE CONGO,1.3666666666666667,29.066666666666666,
64072,BUTEMBO,DEMOCRATIC REPUBLIC OF THE CONGO,0.13333333333333333,29.266666666666666,
64074,WATSA,DEMOCRATIC REPUBLIC OF THE CONGO,3.066666666666667,29.5,
64076,BUNIA,DEMOCRATIC REPUBLIC OF THE CONGO,1.5,30.216666666666665,
64077,BUNIA-RUAMPARA,DEMOCRATIC REPUBLIC OF THE CONGO,1.5666666666666667,30.216666666666665,
64101,LUKOLELA,DEMOCRATIC REPUBLIC OF THE CONGO,-1.05,17.2,
64108,BANDUNDU,DEMOCRATIC REPUBLIC OF THE CONGO,-3.3,17.35,
64115,INONGO,DEMOCRATIC REPUBLIC OF THE CONGO,-1.9666666666666668,18.266666666666666,
64126,BOENDE,DEMOCRATIC REPUBLIC OF THE CONGO,-0.21666666666666667,20.85,
64146,LODJA,DEMOCRATIC REPUBLIC OF THE CONGO,-3.4833333333333334,23.466666666666665,
64155,KINDU,DEMOCRATIC REPUBLIC OF THE CONGO,-2.95,25.916666666666668,
64156,KALIMA,DEMOCRATIC REPUBLIC OF THE CONGO,-2.6,26.55,
64157,RUTSHURU,DEMOCRATIC REPUBLIC OF THE CONGO,-1.1833333333333333,29.45,
64159,UBUNDU,DEMOCRATIC REPUBLIC OF THE CONGO,-0.35,25.45,
64170,WALIKALE,DEMOCRATIC REPUBLIC OF THE CONGO,-1.4166666666666667,27.0,
64180,BUKAVU,DEMOCRATIC REPUBLIC OF THE CONGO,-2.5166666666666666,28.85,
64184,GOMA,DEMOCRATIC REPUBLIC OF THE CONGO,-1.6833333333333333,29.233333333333334,
64201,MOANDA,DEMOCRATIC REPUBLIC OF THE CONGO,-6.0,12.416666666666666,
64203,KITONA,DEMOCRATIC REPUBLIC OF THE CONGO,-5.916666666666667,12.45,
64204,BOMA,DEMOCRATIC REPUBLIC OF THE CONGO,-5.85,13.1,
64206,INGA,DEMOCRATIC REPUBLIC OF THE CONGO,-5.516666666666667,13.583333333333334,
64207,MATADI,DEMOCRATIC REPUBLIC OF THE CONGO,-5.8,13.433333333333334,
64209,LUOZI,DEMOCRATIC REPUBLIC OF THE CONGO,-4.95,14.133333333333333,
64210,KINSHASA/N'DJILI,DEMOCRATIC REPUBLIC OF THE CONGO,-4.383333333333334,15.433333333333334,
64211,KINSHASA/N'DOLO,DEMOCRATIC REPUBLIC OF THE CONGO,-4.316666666666666,15.316666666666666,
64217,KENGE,DEMOCRATIC REPUBLIC OF THE CONGO,-4.916666666666667,17.066666666666666,
64220,KINSHASA/BINZA,DEMOCRATIC REPUBLIC OF THE CONGO,-4.366666666666666,15.25,
64222,KIKWIT,DEMOCRATIC REPUBLIC OF THE CONGO,-5.033333333333333,18.8,
64224,ILEBO,DEMOCRATIC REPUBLIC OF THE CONGO,-4.333333333333333,20.583333333333332,
64228,TSHIKAPA,DEMOCRATIC REPUBLIC OF THE CONGO,-6.416666666666667,20.85,
64235,KANANGA,DEMOCRATIC REPUBLIC OF THE CONGO,-5.883333333333333,22.416666666666668,
64246,LUSAMBO,DEMOCRATIC REPUBLIC OF THE CONGO,-4.966666666666667,23.433333333333334,
64247,MBUJI-MAYI,DEMOCRATIC REPUBLIC OF THE CONGO,-6.166666666666667,23.616666666666667,
64248,LUPUTA,DEMOCRATIC REPUBLIC OF THE CONGO,-7.133333333333334,23.733333333333334,
64264,KASONGO,DEMOCRATIC REPUBLIC OF THE CONGO,-4.516666666666667,26.583333333333332,
64276,KONGOLO,DEMOCRATIC REPUBLIC OF THE CONGO,-5.35,27.0,
64282,MANONO,DEMOCRATIC REPUBLIC OF THE CONGO,-7.283333333333333,27.433333333333334,
64285,KALEMIE,DEMOCRATIC REPUBLIC OF THE CONGO,-5.883333333333333,29.183333333333334,
64301,DILOLO,DEMOCRATIC REPUBLIC OF THE CONGO,-10.683333333333334,22.333333333333332,
64303,SANDOA,DEMOCRATIC REPUBLIC OF THE CONGO,-9.633333333333333,22.85,
64315,KAMINA/BASE,DEMOCRATIC REPUBLIC OF THE CONGO,-8.633333333333333,25.25,
64328,KOLWEZI,DEMOCRATIC REPUBLIC OF THE CONGO,-10.716666666666667,25.45,
64348,MITWABA,DEMOCRATIC REPUBLIC OF THE CONGO,-8.6,27.333333333333332,
64360,LUBUMBASHI-LUANO,DEMOCRATIC REPUBLIC OF THE CONGO,-11.666666666666666,27.483333333333334,
64370,LUBUMBASHI-KARAVIA,DEMOCRATIC REPUBLIC OF THE CONGO,-11.65,27.466666666666665,
63125,DJIBOUTI,DJIBOUTI,11.55,43.15,
63145,OBOLEH,DJIBOUTI,11.166666666666666,42.71666666666667,
62301,SIDI BARRANI,EGYPT,31.616666666666667,25.9,
62305,SALLUM PLATEAU,EGYPT,31.57027777777778,25.131666666666668,
62306,MERSA MATRUH,EGYPT,31.325277777777778,27.221666666666664,
62309,DABAA,EGYPT,31.032777777777778,28.44472222222222,
62318,NOUZHA,EGYPT,31.18166666666667,29.94638888888889,
62324,ROSETTA,EGYPT,31.453611111111112,30.37027777777778,
62325,BALTIM,EGYPT,31.55388888888889,31.084444444444443,
62330,DAMIETTA,EGYPT,31.416666666666668,31.816666666666666,
62332,PORT SAID/EL GAMIL,EGYPT,31.278888888888886,32.23777777777778,
62335,RAFAH-AGRIMET,EGYPT,31.209166666666665,34.205555555555556,
62336,EL ARISH-AGRIMET,EGYPT,31.08861111111111,33.82166666666667,
62337,EL ARISH,EGYPT,31.073333333333334,33.83583333333333,
62345,TAHRIR,EGYPT,30.65,30.7,
62357,WADI EL NATROON AGRIMET,EGYPT,30.4025,30.363333333333333,
62360,SHEBIN EL KOM,EGYPT,30.6,31.016666666666666,
62366,CAIRO,EGYPT,30.11138888888889,31.413888888888888,
62369,BAHTIM AGRIMET,EGYPT,30.143333333333334,31.255,
62371,CAIRO H.Q,EGYPT,30.083333333333332,31.283333333333335,
62375,GIZA - AGRIMET,EGYPT,30.05,31.216666666666665,
62378,HELWAN,EGYPT,29.86277777777778,31.349166666666665,
62381,FAYOUM,EGYPT,29.3,30.85,
62387,MINYA,EGYPT,28.083333333333332,30.733333333333334,
62389,MALWY - AGRIMET,EGYPT,27.7,30.75,
62392,ASYUT - AGRIMET,EGYPT,27.2,31.166666666666668,
62393,ASYUT,EGYPT,27.03805555555556,31.011944444444445,
62398,SHOAG AIRPORT,EGYPT,26.342777777777776,31.74277777777778,
62403,SOUTH OF VALLEY UNIVERSITY,EGYPT,26.200277777777778,32.74666666666667,
62405,LUXOR,EGYPT,25.670833333333334,32.70638888888889,
62408,EDFOU,EGYPT,24.984444444444446,32.8325,
62414,ASSWAN,EGYPT,23.964444444444442,32.82,
62417,SIWA,EGYPT,29.2,25.483333333333334,
62419,ABU SIMBEL,EGYPT,22.375833333333333,31.611666666666668,
62420,BAHARIA,EGYPT,28.333333333333332,28.9,
62423,FARAFRA,EGYPT,27.058333333333334,27.989166666666666,
62425,SHARK-EL-OUINAT,EGYPT,22.583333333333332,28.71611111111111,
62432,DAKHLA,EGYPT,25.502777777777776,28.972499999999997,
62435,KHARGA AGRIMET,EGYPT,25.464444444444442,30.5425,
62440,ISMAILIA,EGYPT,30.591666666666665,32.24722222222222,
62450,EL-SUEZ,EGYPT,29.866666666666667,32.46666666666667,
62452,NEKHEL,EGYPT,29.91444444444444,33.740833333333335,
62453,EL HASANA,EGYPT,30.465833333333332,33.778888888888886,
62454,BEAR EL ABD,EGYPT,30.97472222222222,32.75888888888889,
62455,RAS SEDR,EGYPT,29.584444444444443,32.7175,
62456,TABA,EGYPT,29.587777777777777,34.778055555555554,
62457,SANT KATREIN,EGYPT,28.685277777777777,34.0625,
62458,ABURDEES,EGYPT,28.910555555555554,33.19555555555555,
62459,EL TOR,EGYPT,28.20888888888889,33.64555555555555,
62460,SHARM EL SHEIKH,EGYPT,27.97861111111111,34.39333333333333,
62463,HURGUADA,EGYPT,27.178611111111113,33.80083333333333,
62464,HURGUADA POLLUTION,EGYPT,27.285555555555558,33.74777777777778,
62465,KOSSEIR,EGYPT,26.135555555555555,34.25833333333333,
62467,DAHAB,EGYPT,28.491944444444446,34.50055555555556,
62476,SHALATIN,EGYPT,23.130833333333335,35.58416666666667,
64810,MALABO,EQUATORIAL GUINEA,3.75,8.766666666666667,
64820,BATA (RIO MUNI),EQUATORIAL GUINEA,1.9,9.8,
63006,NACFA,ERITREA,16.666666666666668,38.333333333333336,
63021,ASMARA,ERITREA,15.283333333333333,38.916666666666664,
63023,MASSAWA,ERITREA,15.616666666666667,39.45,
63043,ASSAB,ERITREA,13.066666666666666,42.71666666666667,
63330,MAKALE,ETHIOPIA,13.5,39.483333333333334,
63331,GONDAR,ETHIOPIA,12.55,37.416666666666664,
63332,BAHAR DAR,ETHIOPIA,11.6,37.416666666666664,
63333,COMBOLCHA,ETHIOPIA,11.116666666666667,39.733333333333334,
63334,DEBREMARCOS,ETHIOPIA,10.333333333333334,37.666666666666664,
63340,LEKEMTE,ETHIOPIA,9.083333333333334,36.45,
63402,JIMMA,ETHIOPIA,7.666666666666667,36.833333333333336,
63403,GORE,ETHIOPIA,8.15,35.53333333333333,
63450,ADDIS ABABA-BOLE,ETHIOPIA,9.033333333333333,38.75,
63451,HARAR MEDA,ETHIOPIA,8.733333333333333,38.95,
63453,METEHARA,ETHIOPIA,8.866666666666667,39.9,
63460,AWASSA,ETHIOPIA,7.083333333333333,38.483333333333334,
63471,DIREDAWA,ETHIOPIA,9.6,41.85,
63474,ROBE/BALE,ETHIOPIA,7.133333333333334,40.0,
63478,GODE,ETHIOPIA,5.9,43.583333333333336,
63500,ARBA MINCH,ETHIOPIA,6.083333333333333,37.63333333333333,
63533,NEGHELLE,ETHIOPIA,5.333333333333333,39.56666666666667,
64500,LIBREVILLE,GABON,0.45,9.416666666666666,
64501,PORT-GENTIL,GABON,-0.7,8.75,
64503,MAYUMBA,GABON,-3.4166666666666665,10.65,
64504,COCOBEACH,GABON,1.0,9.6,
64507,TCHIBANGA,GABON,-2.85,11.016666666666667,
64510,BITAM,GABON,2.0833333333333335,11.483333333333333,
64512,OYEM,GABON,1.5833333333333335,11.566666666666666,
64518,KOULAMOUTOU,GABON,-1.1166666666666667,12.5,
64545,MEKAMBO,GABON,1.0166666666666666,13.933333333333334,
64550,MOUILA,GABON,-1.8666666666666667,11.016666666666667,
64551,LAMBARENE,GABON,-0.7166666666666667,10.233333333333333,
64552,MITZIC,GABON,0.7833333333333333,11.533333333333333,
64556,MAKOKOU,GABON,0.5666666666666667,12.866666666666667,
64560,LASTOURVILLE,GABON,-0.8333333333333334,12.716666666666667,
64570,MVENGUE,GABON,-1.65,13.433333333333334,
64580,OKONDJA,GABON,-0.7,13.783333333333333,
61701,BANJUL/YUNDUM,GAMBIA,13.2,-16.633333333333333,
61705,SIBANOR,GAMBIA,13.216666666666667,-16.2,
61707,JENOI,GAMBIA,13.483333333333333,-15.566666666666666,
61711,BANJUL/HALF-DIE,GAMBIA,13.45,-16.45,
61712,KEREWAN,GAMBIA,13.483333333333333,-16.183333333333334,
61717,KAUR,GAMBIA,13.716666666666667,-15.25,
61720,KUNTAUR,GAMBIA,13.666666666666666,-14.883333333333333,
61721,GEORGETOWN,GAMBIA,13.533333333333333,-14.766666666666667,
61722,SAPU,GAMBIA,13.566666666666666,-15.933333333333334,
61731,BASSE,GAMBIA,13.316666666666666,-14.216666666666667,
61733,FATOTO,GAMBIA,13.666666666666666,-14.466666666666667,
65401,NAVRONGO,GHANA,10.9,-1.1,
65404,WA,GHANA,10.05,-2.5,
65416,BOLE,GHANA,9.033333333333333,-2.4833333333333334,
65418,TAMALE,GHANA,9.55,-0.85,
65420,YENDI,GHANA,9.45,-0.016666666666666666,
65432,WENCHI,GHANA,7.75,-2.1,
65437,KETE-KRACHI,GHANA,7.816666666666666,-0.03333333333333333,
65439,SUNYANI,GHANA,7.333333333333333,-2.3333333333333335,
65442,KUMASI,GHANA,6.716666666666667,-1.6,
65445,SEFWI BEKWAI,GHANA,6.2,-2.3333333333333335,
65450,ABETIFI,GHANA,6.666666666666667,-0.75,
65453,HO,GHANA,6.6,0.4666666666666667,
65457,AKIM ODA,GHANA,5.933333333333334,-0.9833333333333333,
65459,KOFORIDUA,GHANA,6.083333333333333,-0.25,
65460,AKUSE,GHANA,6.1,0.11666666666666667,
65462,AKATSI,GHANA,6.116666666666666,0.8,
65465,AXIM,GHANA,4.866666666666667,-2.2333333333333334,
65467,TAKORADI,GHANA,4.883333333333333,-1.7666666666666666,
65469,SALTPOND,GHANA,5.2,-1.0666666666666667,
65472,ACCRA,GHANA,5.6,-0.16666666666666666,
65473,TEMA,GHANA,5.616666666666667,-0.0,
65475,ADA,GHANA,5.783333333333333,0.6333333333333333,
61802,KOUNDARA,GUINEA,12.566666666666666,-13.516666666666667,
61809,LABE,GUINEA,11.316666666666666,-12.3,
61811,SIGUIRI,GUINEA,11.433333333333334,-9.166666666666666,
61816,BOKE,GUINEA,10.933333333333334,-14.816666666666666,
61818,KINDIA,GUINEA,10.05,-12.866666666666667,
61820,MAMOU,GUINEA,10.366666666666667,-12.083333333333334,
61829,KANKAN,GUINEA,10.383333333333333,-9.3,
61831,CONAKRY,GUINEA,9.566666666666666,-13.616666666666667,
61832,CONAKRY/GBESSIA,GUINEA,9.566666666666666,-13.616666666666667,
61833,FARANAH/BADALA,GUINEA,10.033333333333333,-10.75,
61834,KISSIDOUGOU,GUINEA,9.216666666666667,-10.216666666666667,
61847,MACENTA,GUINEA,8.533333333333333,-9.5,
61849,N'ZEREKORE,GUINEA,7.75,-8.283333333333333,
61766,BISSAU AEROPORTO,GUINEA-BISSAU,11.883333333333333,-15.65,
61769,BOLAMA,GUINEA-BISSAU,11.583333333333334,-15.483333333333333,
61781,BAFATA,GUINEA-BISSAU,12.166666666666666,-14.666666666666666,
63612,LODWAR,KENYA,3.118611111111111,35.64,
63619,MOYALE,KENYA,3.5986111111111114,39.05027777777777,
63624,MANDERA,KENYA,3.9386111111111113,41.85444444444445,
63641,MARSABIT,KENYA,2.333888888888889,37.98555555555556,
63661,KITALE,KENYA,1.0169444444444444,35.01166666666666,
63671,WAJIR,KENYA,1.74,40.086666666666666,
63686,ELDORET,KENYA,0.49833333333333335,35.30638888888888,
63687,KAKAMEGA,KENYA,0.27749999999999997,34.76416666666667,
63688,ELDORET INTERNATIONAL AIRPORT,KENYA,0.405,35.22361111111111,
63695,MERU,KENYA,0.051666666666666666,37.65083333333333,
63708,KISUMU,KENYA,-0.08611111111111111,34.72888888888889,
63709,KISII,KENYA,-0.6830555555555555,34.78861111111111,
63710,KERICHO,KENYA,-0.37,35.2725,
63711,SUBA,KENYA,-0.4,34.14805555555556,
63714,NAKURU,KENYA,-0.2727777777777778,36.1025,
63717,NYERI,KENYA,-0.44277777777777777,36.980555555555554,
63720,EMBU,KENYA,-0.4855555555555556,37.45777777777778,
63723,GARISSA,KENYA,-0.4766666666666667,39.64861111111111,
63737,NAROK,KENYA,-1.0841666666666665,35.86055555555556,
63740,JOMO KENYATTA NTERNATIONAL AIRPORT,KENYA,-1.3275,36.91638888888889,
63741,DAGORETTI CORNER,KENYA,-1.303611111111111,36.75972222222222,
63742,WILSON,KENYA,-1.3241666666666667,36.81305555555555,
63766,MAKINDU,KENYA,-2.286111111111111,37.824444444444445,
63772,LAMU,KENYA,-2.2044444444444444,40.83694444444445,
63793,VOI,KENYA,-3.3980555555555556,38.558055555555555,
63799,MALINDI,KENYA,-3.2308333333333334,40.1,
63820,MOMBASA INTERNATIONAL AIRPORT,KENYA,-4.015,39.60638888888889,
68452,MOKHOTLONG,LESOTHO,-29.266666666666666,29.133333333333333,
68454,MASERU-MIA,LESOTHO,-29.45,27.55,
68456,QACHA'S NEK,LESOTHO,-30.066666666666666,28.7,
65602,SPRIGGS PAYNE AIRPORT,LIBERIA,6.333333333333333,-10.75,
65660,ROBERTS FIELD,LIBERIA,6.25,-10.35,
62002,NALUT,LIBYA,31.866666666666667,10.983333333333333,
62007,ZUARA,LIBYA,32.88333333333333,12.083333333333334,
62008,YEFREN,LIBYA,32.083333333333336,12.55,
62010,TRIPOLI INTERNATIONAL AIRPORT,LIBYA,32.7,13.083333333333334,
62010,SWANI,LIBYA,32.74055555555556,13.081944444444444,
62011,GARIAN,LIBYA,32.15555555555555,13.011944444444444,
62012,EL KHOMS,LIBYA,32.63333333333333,14.3,
62014,BENWLID,LIBYA,31.733333333333334,14.016666666666667,
62016,MISURATA,LIBYA,32.416666666666664,15.216666666666667,
62018,ABU NJAYM,LIBYA,30.566666666666666,15.716666666666667,
62019,SIRTE,LIBYA,31.2,16.583333333333332,
62053,BENINA,LIBYA,32.1,20.266666666666666,
62054,AL-MARJ,LIBYA,32.516666666666666,20.883333333333333,
62055,AGEDABIA,LIBYA,30.716666666666665,20.166666666666668,
62056,SHAHAT,LIBYA,32.8,21.883333333333333,
62059,DERNA,LIBYA,32.78333333333333,22.583333333333332,
62062,TOBRUK,LIBYA,32.1,23.933333333333334,
62103,GHADAMES,LIBYA,30.133333333333333,9.5,
62120,GARIAT EL-SHARGHIA,LIBYA,30.383333333333333,13.583333333333334,
62121,EL HAMADA,LIBYA,29.516666666666666,12.933333333333334,
62124,SEBHA,LIBYA,27.016666666666666,14.45,
62131,HON,LIBYA,29.116666666666667,15.95,
62140,ZALLA,LIBYA,28.585555555555555,17.299722222222226,
62161,JALO,LIBYA,29.033333333333335,21.566666666666666,
62176,GIGHBUB,LIBYA,29.75,24.533333333333335,
62200,OBARI,LIBYA,26.6,12.783333333333333,
62212,GHAT,LIBYA,25.133333333333333,10.15,
62259,TAZERBO,LIBYA,25.8,21.133333333333333,
62271,KUFRA,LIBYA,24.216666666666665,23.3,
67009,ANTSIRANANA,MADAGASCAR,-12.35,49.3,
67012,FASCENE (NOSSI-BE),MADAGASCAR,-13.316666666666666,48.31666666666667,
67017,VOHEMAR,MADAGASCAR,-13.366666666666667,50.0,
67019,ANALALAVA,MADAGASCAR,-14.633333333333333,47.766666666666666,
67020,ANTSOHIHY,MADAGASCAR,-14.883333333333333,47.983333333333334,
67022,ANDAPA,MADAGASCAR,-14.65,49.61666666666667,
67023,SAMBAVA,MADAGASCAR,-14.283333333333333,50.166666666666664,
67025,ANTALAHA,MADAGASCAR,-14.883333333333333,50.25,
67027,MAHAJANGA,MADAGASCAR,-15.666666666666666,46.35,
67037,BESALAMPY,MADAGASCAR,-16.75,44.483333333333334,
67045,MAEVATANANA,MADAGASCAR,-16.95,46.833333333333336,
67067,AMBOHITSILAOZANA,MADAGASCAR,-17.633333333333333,48.5,
67072,SAINTE-MARIE AERODROME,MADAGASCAR,-17.083333333333332,49.81666666666667,
67073,MAINTIRANO,MADAGASCAR,-18.05,44.03333333333333,
67083,ANTANANARIVO/IVATO,MADAGASCAR,-18.8,47.483333333333334,
67085,ANTANANARIVO,MADAGASCAR,-18.866666666666667,47.5,
67095,TOAMASINA,MADAGASCAR,-18.116666666666667,49.4,
67107,ANTSIRABE,MADAGASCAR,-19.816666666666666,47.06666666666667,
67113,MAHANORO,MADAGASCAR,-19.833333333333332,48.8,
67117,MORONDAVA,MADAGASCAR,-20.283333333333335,44.31666666666667,
67131,MOROMBE,MADAGASCAR,-21.75,43.36666666666667,
67137,FIANARANTSOA,MADAGASCAR,-21.45,47.1,
67143,MANANJARY,MADAGASCAR,-21.2,48.36666666666667,
67152,RANOHIRA,MADAGASCAR,-22.55,45.4,
67157,FARAFANGANA,MADAGASCAR,-22.8,47.833333333333336,
67161,TOLIARA,MADAGASCAR,-23.383333333333333,43.733333333333334,
67194,FAUX-CAP,MADAGASCAR,-25.55,45.53333333333333,
67197,TAOLAGNARO,MADAGASCAR,-25.033333333333335,46.95,
08521,FUNCHAL/S.CATARINA,MADEIRA,32.68333333333333,-16.766666666666666,
08522,FUNCHAL,MADEIRA,32.63333333333333,-16.9,
08524,PORTO SANTO,MADEIRA,33.06666666666667,-16.35,
67421,CHITIPA,MALAWI,-9.7,33.266666666666666,
67423,KARONGA,MALAWI,-9.95,33.88333333333333,
67424,BOLERO,MALAWI,-10.966666666666667,33.733333333333334,
67485,MZIMBA,MALAWI,-11.883333333333333,33.61666666666667,
67489,MZUZU,MALAWI,-11.45,34.016666666666666,
67493,NKHATA BAY,MALAWI,-11.6,34.3,
67584,KASUNGU,MALAWI,-13.016666666666667,33.46666666666667,
67585,CHITEDZE,MALAWI,-13.983333333333333,33.63333333333333,
67586,LILONGWE INT'L AIRPORT,MALAWI,-13.783333333333333,33.766666666666666,
67588,N.R.C.,MALAWI,-14.166666666666666,33.666666666666664,
67591,NKHOTA KOTA,MALAWI,-12.916666666666666,34.266666666666666,
67597,SALIMA,MALAWI,-13.75,34.583333333333336,
67687,CHICHIRI,MALAWI,-15.783333333333333,35.03333333333333,
67689,DEDZA,MALAWI,-14.316666666666666,34.266666666666666,
67690,MONKEY BAY,MALAWI,-14.083333333333334,34.916666666666664,
67692,MAKOKA,MALAWI,-15.516666666666667,35.21666666666667,
67693,CHILEKA,MALAWI,-15.683333333333334,34.96666666666667,
67695,MANGOCHI,MALAWI,-14.433333333333334,35.25,
67699,MIMOSA,MALAWI,-16.083333333333332,35.583333333333336,
67791,BVUMBWE,MALAWI,-15.916666666666666,35.06666666666667,
67793,THYOLO,MALAWI,-16.15,35.21666666666667,
67796,NGABU,MALAWI,-16.5,34.95,
67797,MAKANGA,MALAWI,-16.516666666666666,35.15,
61202,TESSALIT,MALI,20.2,0.9833333333333333,
61214,KIDAL,MALI,18.433333333333334,1.35,
61223,TOMBOUCTOU,MALI,16.716666666666665,-3.0,
61226,GAO,MALI,16.266666666666666,-0.05,
61230,NIORO DU SAHEL,MALI,15.233333333333333,-9.35,
61233,NARA,MALI,15.166666666666666,-7.283333333333333,
61235,YELIMANE,MALI,15.116666666666667,-10.566666666666666,
61240,HOMBORI,MALI,15.333333333333334,-1.6833333333333333,
61250,MENAKA,MALI,15.866666666666667,2.216666666666667,
61257,KAYES,MALI,14.433333333333334,-11.433333333333334,
61265,MOPTI,MALI,14.516666666666667,-4.1,
61270,KITA,MALI,13.066666666666666,-9.466666666666667,
61272,SEGOU,MALI,13.4,-6.15,
61277,SAN,MALI,13.333333333333334,-4.833333333333333,
61285,KENIEBA,MALI,12.85,-11.233333333333333,
61288,DIOILA,MALI,12.483333333333333,-6.8,
61291,BAMAKO/SENOU,MALI,12.533333333333333,-7.95,
61293,KOUTIALA,MALI,12.383333333333333,-5.466666666666667,
61296,BOUGOUNI,MALI,11.416666666666666,-7.5,
61297,SIKASSO,MALI,11.35,-5.683333333333334,
61401,BIR MOGHREIN,MAURITANIA,25.233333333333334,-11.616666666666667,
61404,ZOUERATE,MAURITANIA,22.75,-12.483333333333333,
61415,NOUADHIBOU,MAURITANIA,20.933333333333334,-17.033333333333335,
61421,ATAR,MAURITANIA,20.516666666666666,-13.066666666666666,
61437,AKJOUJT,MAURITANIA,19.75,-14.366666666666667,
61442,NOUAKCHOTT,MAURITANIA,18.1,-15.95,
61450,TIDJIKJA,MAURITANIA,18.566666666666666,-11.433333333333334,
61461,BOUTILIMIT,MAURITANIA,17.533333333333335,-14.683333333333334,
61470,ALEG,MAURITANIA,17.05,-12.916666666666666,
61489,ROSSO,MAURITANIA,16.5,-15.816666666666666,
61492,KAEDI,MAURITANIA,16.15,-13.516666666666667,
61497,NEMA,MAURITANIA,16.6,-7.266666666666667,
61498,KIFFA,MAURITANIA,16.633333333333333,-11.4,
61499,AIOUN EL ATROUSS,MAURITANIA,16.7,-9.6,
61510,SELIBABY,MAURITANIA,15.233333333333333,-12.166666666666666,
61520,BASSIKOUNOU,MAURITANIA,15.866666666666667,-5.933333333333334,
61974,AGALEGA,MAURITIUS,-10.383333333333333,56.6,
61986,ST. BRANDON (RAPHAEL ISLAND),MAURITIUS,-16.45,59.61666666666667,
61988,RODRIGUES (POINT CANON),MAURITIUS,-19.683333333333334,63.416666666666664,
61989,PLAINE CORAIL (RODRIGUES),MAURITIUS,-19.75,63.36666666666667,
61990,PLAISANCE (MAURITIUS),MAURITIUS,-20.434444444444445,57.683611111111105,
61995,VACOAS (MAURITIUS),MAURITIUS,-20.297500000000003,57.49472222222222,
60060,SIDI IFNI,MOROCCO,29.366666666666667,-10.183333333333334,
60100,TANGER-PORT,MOROCCO,35.78777777777778,-5.806666666666667,
60101,TANGER (AERODROME),MOROCCO,35.72638888888889,-5.905555555555556,
60105,LARACHE,MOROCCO,35.16277777777778,-6.116388888888888,
60106,CHEFCHAOUEN,MOROCCO,35.1725,-5.313055555555556,
60107,AL HOCEIMA,MOROCCO,35.18333333333333,-3.85,
60115,OUJDA,MOROCCO,34.78333333333333,-1.9333333333333333,
60120,KENITRA,MOROCCO,34.30027777777777,-6.594722222222222,
60127,TAZA,MOROCCO,34.21666666666667,-4.0,
60128,TAOURIRT,MOROCCO,34.39694444444444,-2.8980555555555556,
60135,RABAT-SALE,MOROCCO,34.04611111111111,-6.758055555555556,
60136,SIDI SLIMANE,MOROCCO,34.23277777777778,-6.054722222222222,
60141,FES-SAIS,MOROCCO,33.93277777777777,-4.9750000000000005,
60146,MOHAMMEDIA,MOROCCO,33.71666666666667,-7.4,
60150,MEKNES,MOROCCO,33.882222222222225,-5.522777777777778,
60155,CASABLANCA,MOROCCO,33.56666666666667,-7.666666666666667,
60156,NOUASSEUR,MOROCCO,33.36666666666667,-7.583333333333333,
60160,IFRANE,MOROCCO,33.5,-5.166666666666667,
60165,EL JADIDA,MOROCCO,33.233333333333334,-8.516666666666667,
60177,SETTAT,MOROCCO,32.95,-7.616666666666667,
60178,KHOURIBGA,MOROCCO,32.86666666666667,-6.966666666666667,
60185,SAFI,MOROCCO,32.28333333333333,-9.233333333333333,
60190,KASBA-TADLA,MOROCCO,32.53333333333333,-6.283333333333333,
60191,BENI-MELLAL,MOROCCO,32.36666666666667,-6.4,
60195,MIDELT,MOROCCO,32.68333333333333,-4.733333333333333,
60200,BOUARFA,MOROCCO,32.56666666666667,-1.95,
60210,ERRACHIDIA,MOROCCO,31.933333333333334,-4.4,
60220,ESSAOUIRA,MOROCCO,31.516666666666666,-9.783333333333333,
60223,TAKERKOUSTE,MOROCCO,31.033333333333335,-8.483333333333333,
60230,MARRAKECH,MOROCCO,31.616666666666667,-8.033333333333333,
60237,OUKAIMDEN,MOROCCO,31.216666666666665,-7.916666666666667,
60250,AGADIR INEZGANNE,MOROCCO,30.383333333333333,-9.566666666666666,
60252,AGADIR AL MASSIRA,MOROCCO,30.328888888888887,-9.399444444444445,
60253,TAROUDANT,MOROCCO,30.5,-8.816666666666666,
60265,OUARZAZATE,MOROCCO,30.933333333333334,-6.9,
60270,TIZNIT,MOROCCO,29.683333333333334,-9.733333333333333,
60280,GUELMIN,MOROCCO,29.016666666666666,-10.05,
60285,TAN-TAN,MOROCCO,28.44611111111111,-11.158333333333333,
60318,TETUAN,MOROCCO,35.59277777777778,-5.331666666666666,
60335,SMARA,MOROCCO,26.733333333333334,-11.683333333333334,
60340,NADOR-AROUI,MOROCCO,34.983333333333334,-3.0166666666666666,
67201,MUEDA,MOZAMBIQUE,-11.666666666666666,39.55,
67205,MOCIMBOA DA PRAIA,MOZAMBIQUE,-11.35,40.36666666666667,
67210,MATCHEDJE,MOZAMBIQUE,-11.6,35.43333333333333,
67215,PEMBA,MOZAMBIQUE,-12.983333333333333,40.53333333333333,
67217,LICHINGA,MOZAMBIQUE,-13.3,35.233333333333334,
67221,MARRUPA,MOZAMBIQUE,-13.733333333333333,37.55,
67223,MONTEPUEZ,MOZAMBIQUE,-13.133333333333333,39.03333333333333,
67229,ULONGUE,MOZAMBIQUE,-14.733333333333333,34.35,
67231,CUAMBA,MOZAMBIQUE,-14.833333333333334,36.516666666666666,
67237,NAMPULA,MOZAMBIQUE,-15.1,39.28333333333333,
67240,NACALA AIRPORT,MOZAMBIQUE,-14.483333333333333,40.71666666666667,
67241,LUMBO,MOZAMBIQUE,-15.033333333333333,40.666666666666664,
67243,ZUMBO,MOZAMBIQUE,-15.616666666666667,30.433333333333334,
67250,SONGO,MOZAMBIQUE,-15.6,34.43333333333333,
67260,MILANGE,MOZAMBIQUE,-16.1,35.766666666666666,
67261,TETE,MOZAMBIQUE,-16.183333333333334,33.583333333333336,
67262,TETE CHINGODZE,MOZAMBIQUE,-16.116666666666667,33.65,
67271,MOCUBA,MOZAMBIQUE,-16.833333333333332,36.983333333333334,
67273,ANGOCHE,MOZAMBIQUE,-16.216666666666665,39.9,
67280,CAIA,MOZAMBIQUE,-17.833333333333332,35.333333333333336,
67283,QUELIMANE,MOZAMBIQUE,-17.883333333333333,36.88333333333333,
67285,PEBANE,MOZAMBIQUE,-17.266666666666666,38.15,
67291,CATANDICA,MOZAMBIQUE,-18.066666666666666,33.166666666666664,
67295,CHIMOIO,MOZAMBIQUE,-19.116666666666667,33.46666666666667,
67297,BEIRA,MOZAMBIQUE,-19.8,34.9,
67301,ESPUNGABERA,MOZAMBIQUE,-20.466666666666665,32.766666666666666,
67305,MASSANGENA,MOZAMBIQUE,-21.55,32.96666666666667,
67315,VILANCULOS,MOZAMBIQUE,-22.0,35.31666666666667,
67323,INHAMBANE,MOZAMBIQUE,-23.866666666666667,35.38333333333333,
67324,INHAMBANE AEROPORTO,MOZAMBIQUE,-23.866666666666667,35.416666666666664,
67327,PANDA,MOZAMBIQUE,-24.05,34.71666666666667,
67331,MAPULANGUENE,MOZAMBIQUE,-24.483333333333334,32.083333333333336,
67335,XAI XAI,MOZAMBIQUE,-25.05,33.63333333333333,
67339,MAPUTO OBSERVATORIO,MOZAMBIQUE,-25.966666666666665,32.6,
67341,MAPUTO/MAVALANE,MOZAMBIQUE,-25.916666666666668,32.56666666666667,
67346,CHANGALANE,MOZAMBIQUE,-26.283333333333335,32.18333333333333,
68004,OTJIWARONGO,NAMIBIA,-20.45,16.633333333333333,
68006,ONDANGWA,NAMIBIA,-17.877222222222223,15.95,
68010,OKAUKUEJO,NAMIBIA,-19.183333333333334,15.916666666666666,
68014,GROOTFONTEIN,NAMIBIA,-19.59861111111111,18.116111111111113,
68016,MOWE BAY,NAMIBIA,-19.333333333333332,12.716666666666667,
68018,RUNDU,NAMIBIA,-17.916666666666668,19.766666666666666,
68098,WALVIS BAY AIRPORT,NAMIBIA,-22.983333333333334,14.65,
68102,OUTJO,NAMIBIA,-20.113611111111112,16.15361111111111,
68104,WALVIS BAY (PELICAN POINT),NAMIBIA,-22.883333333333333,14.433333333333334,
68106,GOBABEB,NAMIBIA,-23.566666666666666,15.05,
68109,EROS,NAMIBIA,-22.6075,17.079166666666666,
68110,WINDHOEK,NAMIBIA,-22.566666666666666,17.1,
68112,HOSEA KUTAKO INTERNATIONAL AIRPORT,NAMIBIA,-22.481111111111108,17.470277777777778,
68114,OMARURU,NAMIBIA,-21.416666666666668,15.933333333333334,
68116,GOBABIS,NAMIBIA,-22.466666666666665,18.966666666666665,
68212,MARIENTAL,NAMIBIA,-24.5,17.866666666666667,
68300,LUDERITZ AIRPORT,NAMIBIA,-26.685277777777777,15.245555555555555,
68312,KEETMANSHOOP,NAMIBIA,-26.533333333333335,18.116666666666667,
61017,BILMA,NIGER,18.683333333333334,12.916666666666666,
61024,AGADEZ,NIGER,16.966666666666665,7.983333333333333,
61036,TILLABERY,NIGER,14.2,1.45,
61043,TAHOUA,NIGER,14.9,5.25,
61045,GOURE,NIGER,13.983333333333333,10.3,
61049,N'GUIGMI,NIGER,14.25,13.116666666666667,
61052,NIAMEY-AERO,NIGER,13.483333333333333,2.1666666666666665,
61053,DOSSO,NIGER,13.033333333333333,3.3,
61075,BIRNI-N'KONNI,NIGER,13.8,5.25,
61080,MARADI,NIGER,13.466666666666667,7.083333333333333,
61085,DIFFA,NIGER,13.416666666666666,12.783333333333333,
61090,ZINDER,NIGER,13.783333333333333,8.983333333333333,
61096,MAINE-SOROA,NIGER,13.233333333333333,11.983333333333333,
61099,GAYA,NIGER,11.883333333333333,3.45,
65001,YELWA,NIGERIA,10.883333333333333,4.75,
65003,BIRNIN KEBBI,NIGERIA,12.466666666666667,4.216666666666667,
65010,SOKOTO,NIGERIA,13.016666666666667,5.25,
65015,GUSAU,NIGERIA,12.166666666666666,6.7,
65019,KADUNA,NIGERIA,10.6,7.45,
65028,KATSINA,NIGERIA,13.016666666666667,7.683333333333334,
65030,ZARIA,NIGERIA,11.1,7.683333333333334,
65046,KANO,NIGERIA,12.05,8.533333333333333,
65055,BAUCHI,NIGERIA,10.283333333333333,9.816666666666666,
65064,NGURU,NIGERIA,12.883333333333333,10.466666666666667,
65073,POTISKUM,NIGERIA,11.7,11.033333333333333,
65075,GOMBE,NIGERIA,10.283333333333333,11.15,
65082,MAIDUGURI,NIGERIA,11.85,13.083333333333334,
65101,ILORIN,NIGERIA,8.483333333333333,4.583333333333333,
65108,SHAKI,NIGERIA,8.666666666666666,3.3833333333333333,
65112,BIDA,NIGERIA,9.1,6.016666666666667,
65123,MINNA,NIGERIA,9.616666666666667,6.533333333333333,
65124,LAFIA,NIGERIA,8.55,8.533333333333333,
65125,ABUJA,NIGERIA,9.25,7.0,
65134,JOS,NIGERIA,9.866666666666667,8.9,
65145,IBI,NIGERIA,8.183333333333334,9.75,
65167,YOLA,NIGERIA,9.233333333333333,12.466666666666667,
65200,ISEYIN,NIGERIA,7.966666666666667,3.6,
65201,LAGOS/IKEJA,NIGERIA,6.583333333333333,3.3333333333333335,
65202,LAGOS/OSHODI,NIGERIA,6.5,3.3833333333333333,
65203,LAGOS ROOF,NIGERIA,6.45,3.4,
65208,IBADAN,NIGERIA,7.433333333333334,3.9,
65210,IJEBU ODE,NIGERIA,6.833333333333333,3.9333333333333336,
65213,ABEOKUTA,NIGERIA,7.166666666666667,3.3333333333333335,
65215,OSHOGBO,NIGERIA,7.783333333333333,4.483333333333333,
65222,ONDO,NIGERIA,7.1,4.833333333333333,
65224,ADO EKITI,NIGERIA,7.65,5.2,
65229,BENIN CITY,NIGERIA,6.316666666666666,5.1,
65232,AKURE,NIGERIA,7.283333333333333,5.3,
65236,WARRI,NIGERIA,5.516666666666667,5.733333333333333,
65243,LOKOJA,NIGERIA,7.783333333333333,6.733333333333333,
65245,ONITSHA,NIGERIA,6.15,6.783333333333333,
65246,AWKA,NIGERIA,6.2,7.05,
65250,PORT HARCOURT,NIGERIA,4.85,7.016666666666667,
65252,OWERRI,NIGERIA,5.483333333333333,7.0,
65254,UMUAHIA,NIGERIA,5.483333333333333,7.55,
65257,ENUGU,NIGERIA,6.466666666666667,7.55,
65260,UYO,NIGERIA,5.051111111111111,7.916666666666667,
65264,CALABAR,NIGERIA,4.966666666666667,8.35,
65271,MAKURDI,NIGERIA,7.733333333333333,8.533333333333333,
65273,IKOM,NIGERIA,5.966666666666667,8.7,
65274,OBUDU,NIGERIA,6.6,9.316666666666666,
65275,OGOJA,NIGERIA,6.666666666666667,8.8,
61901,ST. HELENA IS.,OCEAN ISLANDS,-15.941944444444445,-5.667222222222223,
61902,WIDE AWAKE FIELD (ASCENSION IS.),OCEAN ISLANDS,-7.97,-14.405555555555557,
61903,ST. HELENA,OCEAN ISLANDS,-15.939722222222223,-5.669722222222222,
61931,S. TOME,OCEAN ISLANDS,0.38333333333333336,6.716666666666667,
61934,PRINCIPE,OCEAN ISLANDS,1.65,7.416666666666667,
61966,DIEGO GARCIA,OCEAN ISLANDS,-7.299722222222222,72.4,
61967,DIEGO GARCIA,OCEAN ISLANDS,-7.3,72.4,
61968,ILES GLORIEUSES,OCEAN ISLANDS,-11.582777777777778,47.28972222222222,
61970,ILE JUAN DE NOVA,OCEAN ISLANDS,-17.054722222222225,42.71194444444445,
61972,ILE EUROPA,OCEAN ISLANDS,-22.344166666666666,40.34055555555556,
61976,SERGE-FROLOW (ILE TROMELIN),OCEAN ISLANDS,-15.887777777777778,54.52055555555555,
61978,PITON VILLERS RADAR,OCEAN ISLANDS,-21.190277777777776,55.57361111111111,
61979,LE COLORADO RADAR,OCEAN ISLANDS,-20.911666666666665,55.42166666666667,
61980,SAINT-DENIS/GILLOT (REUNION),OCEAN ISLANDS,-20.8925,55.52861111111111,
61982,"ST. DENIS, REUNION",OCEAN ISLANDS,-20.91,55.59,
61996,MARTIN DE VIVIES (ILE AMSTERDAM),OCEAN ISLANDS,-37.79527777777778,77.56916666666666,
61997,ALFRED FAURE (ILES CROZET),OCEAN ISLANDS,-46.4325,51.85666666666667,
61998,PORT-AUX-FRANCAIS (ILES KERGUELEN),OCEAN ISLANDS,-49.352222222222224,70.24333333333334,
64380,KAMEMBE,RWANDA,-2.47,28.92,
64381,GISENYI,RWANDA,-1.67,29.25,
64383,RUHENGERI,RWANDA,-1.4994444444444446,29.6325,
64384,BUTARE,RWANDA,-2.6,29.729999999999997,
64387,KIGALI,RWANDA,-1.9649999999999999,30.13277777777778,
61600,SAINT-LOUIS,SENEGAL,16.05,-16.449722222222224,
61612,PODOR,SENEGAL,16.649722222222223,-14.929722222222221,
61627,LINGUERE,SENEGAL,15.38,-15.119722222222222,
61630,MATAM,SENEGAL,15.63,-13.25,
61641,DAKAR/YOFF,SENEGAL,14.73,-17.5,
61666,DIOURBEL,SENEGAL,14.65,-16.229999999999997,
61679,KAOLACK,SENEGAL,14.13,-16.07,
61687,TAMBACOUNDA,SENEGAL,13.769722222222223,-13.679722222222221,
61695,ZIGUINCHOR,SENEGAL,12.55,-16.26972222222222,
61697,CAP-SKIRRING,SENEGAL,12.039722222222222,-16.75,
61698,KOLDA,SENEGAL,12.88,-14.97,
61699,KEDOUGOU,SENEGAL,12.57,-12.22,
63980,SEYCHELLES INTERNATIONAL AIRPORT,SEYCHELLES,-4.666666666666667,55.516666666666666,
63981,PRASLIN,SEYCHELLES,-5.316666666666666,55.68333333333333,
63985,SEYCHELLES INTER. AIRPORT (RAWINSONDE STATION),SEYCHELLES,-4.683333333333334,55.516666666666666,
63994,DESROCHES,SEYCHELLES,-5.693888888888889,53.650277777777774,
63995,ALDABRA,SEYCHELLES,-9.35,46.53333333333333,
63996,FARQUHAR,SEYCHELLES,-10.1,51.166666666666664,
61856,LUNGI,SIERRA LEONE,8.616666666666667,-13.2,
61866,BONTHE,SIERRA LEONE,7.533333333333333,-12.5,
61873,MAKENI,SIERRA LEONE,8.55,-12.05,
61877,YELE,SIERRA LEONE,8.416666666666666,-11.833333333333334,
61878,NJALA,SIERRA LEONE,8.1,-12.1,
61881,BO,SIERRA LEONE,7.95,-11.766666666666667,
61886,KABALA,SIERRA LEONE,9.583333333333334,-11.55,
61891,DARU,SIERRA LEONE,7.983333333333333,-10.85,
61892,SEFADU,SIERRA LEONE,8.65,-10.966666666666667,
63150,BORAMA,SOMALIA,9.95,43.18333333333333,
63160,BERBERA,SOMALIA,10.416666666666666,45.016666666666666,
63170,HARGEISA,SOMALIA,9.5,44.083333333333336,
63175,BURAO,SOMALIA,9.516666666666667,45.56666666666667,
63180,ERIGAVO,SOMALIA,10.633333333333333,47.36666666666667,
63190,LAS-ANOD,SOMALIA,8.5,47.36666666666667,
63200,ALULA,SOMALIA,11.95,50.733333333333334,
63210,BOSASO,SOMALIA,11.283333333333333,49.18333333333333,
63220,SCUSCIUBAN,SOMALIA,10.3,50.233333333333334,
63225,GARDO,SOMALIA,9.516666666666667,49.083333333333336,
63227,GAROE,SOMALIA,7.95,48.5,
63228,EIL,SOMALIA,7.95,49.78333333333333,
63230,GALCAYO,SOMALIA,6.85,47.266666666666666,
63235,OBBIA,SOMALIA,5.333333333333333,48.56666666666667,
63237,EL BUR,SOMALIA,4.7,46.61666666666667,
63240,BELET UEN,SOMALIA,4.7,45.21666666666667,
63245,HUDDUR,SOMALIA,4.183333333333334,43.86666666666667,
63247,ISCIA BAIDOA,SOMALIA,3.1333333333333333,43.666666666666664,
63248,LUG-GANANE,SOMALIA,3.5833333333333335,42.45,
63250,BARDERA,SOMALIA,2.35,42.3,
63260,MOGADISCIO,SOMALIA,2.033333333333333,45.35,
63270,CHISIMAIO,SOMALIA,-0.36666666666666664,42.43333333333333,
68155,LEPHALALE,SOUTH AFRICA,-23.68,27.7,
68163,MARKEN,SOUTH AFRICA,-23.6,28.383055555555558,
68174,POLOKWANE,SOUTH AFRICA,-23.87,29.45,
68176,MARA,SOUTH AFRICA,-23.15,29.57,
68181,TSHIPISE,SOUTH AFRICA,-22.616944444444446,30.166944444444447,
68182,LEVUBU,SOUTH AFRICA,-23.079722222222223,30.279999999999998,
68183,THOHOYANDOU,SOUTH AFRICA,-23.08722222222222,30.384444444444444,
68185,LYDENBURG,SOUTH AFRICA,-25.111944444444447,30.476666666666667,
68191,PHALABORWA,SOUTH AFRICA,-23.93611111111111,31.154722222222222,
68196,PUNDA MARIA,SOUTH AFRICA,-22.68,31.02,
68241,MADIKWE GAME RESERVE,SOUTH AFRICA,-24.690277777777776,26.194444444444446,
68242,MAFIKENG,SOUTH AFRICA,-25.808333333333334,25.560555555555556,
68253,THABAZIMBI,SOUTH AFRICA,-24.58277777777778,27.416944444444447,
68255,RUSTENBURG,SOUTH AFRICA,-25.65,27.233055555555556,
68257,PILANESBERG,SOUTH AFRICA,-25.261388888888888,27.22861111111111,
68261,BOLEPI HOUSE,SOUTH AFRICA,-25.816666666666666,28.25,
68262,PRETORIA EENDRACHT,SOUTH AFRICA,-25.742222222222225,28.183333333333334,
68263,PRETORIA (IRENE),SOUTH AFRICA,-25.91,28.211111111111112,
68265,GRAND CENTRAL,SOUTH AFRICA,-25.983333333333334,28.133333333333333,
68267,ERMELO,SOUTH AFRICA,-26.497777777777777,29.983888888888888,
68268,WARMBAD TOWOOMBA,SOUTH AFRICA,-24.9,28.33,
68269,PRETORIA UNISA,SOUTH AFRICA,-25.77,28.2,
68271,KOPANE,SOUTH AFRICA,-24.205555555555556,29.011666666666667,
68272,OUDESTAD,SOUTH AFRICA,-25.18,29.33,
68273,WITBANK,SOUTH AFRICA,-25.836944444444445,29.18861111111111,
68285,BELFAST,SOUTH AFRICA,-25.691666666666666,30.034444444444446,
68287,GRASKOP,SOUTH AFRICA,-24.93305555555556,30.85,
68289,NELSPRUIT,SOUTH AFRICA,-25.5,30.916666666666668,
68291,HOEDSPRUIT,SOUTH AFRICA,-24.35,31.05,
68295,SKUKUZA,SOUTH AFRICA,-24.979999999999997,31.58,
68296,SKUKUZA,SOUTH AFRICA,-24.979999999999997,31.6,
68297,KOMATIDRAAI,SOUTH AFRICA,-25.516944444444444,31.9,
68322,TWEE RIVIEREN,SOUTH AFRICA,-26.47138888888889,20.610555555555557,
68329,VAN ZYLSRUS,SOUTH AFRICA,-26.884166666666665,22.05027777777778,
68331,KATHU,SOUTH AFRICA,-27.671944444444446,23.010555555555555,
68333,KURUMAN,SOUTH AFRICA,-27.43305555555556,23.4475,
68335,TAUNG,SOUTH AFRICA,-27.54527777777778,24.769166666666667,
68338,VRYBURG,SOUTH AFRICA,-26.95,24.63,
68341,LICHTENBURG,SOUTH AFRICA,-26.133055555555558,26.166944444444447,
68342,OTTOSDAL,SOUTH AFRICA,-26.82,26.02,
68343,BLOEMHOF,SOUTH AFRICA,-27.65111111111111,25.621944444444445,
68345,WELKOM,SOUTH AFRICA,-27.994722222222222,26.66583333333333,
68347,KLERKSDORP,SOUTH AFRICA,-26.9,26.616944444444446,
68349,VENTERSDORP,SOUTH AFRICA,-26.316944444444445,26.816944444444445,
68350,POTCHEFSTROOM,SOUTH AFRICA,-26.733055555555556,27.066944444444445,
68353,VEREENIGING,SOUTH AFRICA,-26.566944444444445,27.95,
68355,KROONSTAD,SOUTH AFRICA,-27.633055555555558,27.233055555555556,
68361,JOHANNESBURG BOT. TUINE,SOUTH AFRICA,-26.15,28.0,
68362,FRANKFORT-TNK,SOUTH AFRICA,-27.26722222222222,28.494722222222222,
68363,SPRINGS,SOUTH AFRICA,-26.2,28.43305555555556,
68368,JOHANNESBURG INTNL. AIRPORT,SOUTH AFRICA,-26.15,28.229999999999997,
68370,BETHAL,SOUTH AFRICA,-26.46222222222222,29.460555555555555,
68375,VREDE,SOUTH AFRICA,-27.422777777777778,29.169444444444444,
68377,NEWCASTLE,SOUTH AFRICA,-27.76888888888889,29.976666666666667,
68380,CAROLINA,SOUTH AFRICA,-26.07,30.12,
68387,VRYHEID,SOUTH AFRICA,-27.77722222222222,30.8,
68397,MBAZWANA AIRFIELD,SOUTH AFRICA,-27.4775,32.598333333333336,
68400,MAKATINI,SOUTH AFRICA,-27.394166666666667,32.176944444444445,
68403,ALEXANDER BAY,SOUTH AFRICA,-28.572777777777777,16.53638888888889,
68408,PORT NOLLOTH,SOUTH AFRICA,-29.249722222222225,16.868055555555557,
68411,VIOOLSDRIF,SOUTH AFRICA,-28.769444444444442,17.623333333333335,
68416,POFADDER,SOUTH AFRICA,-29.128333333333334,19.392777777777777,
68424,UPINGTON,SOUTH AFRICA,-28.41361111111111,21.259722222222223,
68425,AUGRABIES FALLS,SOUTH AFRICA,-28.602777777777778,20.344444444444445,
68429,POSTMASBURG,SOUTH AFRICA,-28.34583333333333,23.079166666666666,
68438,KIMBERLEY,SOUTH AFRICA,-28.8,24.803333333333335,
68442,BLOEMFONTEIN AIRPORT,SOUTH AFRICA,-29.1,26.3,
68443,BLOEMFONTEIN CITY,SOUTH AFRICA,-29.116944444444446,26.18305555555556,
68447,GLEN COLLEGE AWS,SOUTH AFRICA,-28.95,26.333333333333332,
68449,FICKSBURG,SOUTH AFRICA,-28.827222222222222,27.904166666666665,
68461,BETHLEHEM,SOUTH AFRICA,-28.249166666666667,28.4,
68471,VAN REENEN,SOUTH AFRICA,-28.366944444444446,29.383055555555558,
68474,ROYAL NATIONAL PARK,SOUTH AFRICA,-28.685833333333335,28.954166666666666,
68478,ESTCOURT,SOUTH AFRICA,-29.015,29.868055555555557,
68479,LADYSMITH,SOUTH AFRICA,-28.566944444444445,29.766944444444444,
68481,PONGOLA,SOUTH AFRICA,-27.413888888888888,31.591666666666665,
68485,MOOI RIVER,SOUTH AFRICA,-29.21,30.0,
68487,GREYTOWN,SOUTH AFRICA,-29.083055555555557,30.6,
68488,BABANANGO,SOUTH AFRICA,-28.37,31.22,
68491,CHARTERS CREEK,SOUTH AFRICA,-28.2,32.41694444444444,
68493,ULUNDI,SOUTH AFRICA,-28.3,31.42,
68494,MANDINI,SOUTH AFRICA,-29.15,31.4,
68495,RICHARDS BAY,SOUTH AFRICA,-28.729999999999997,32.080000000000005,
68497,MTUNZINI,SOUTH AFRICA,-28.95,31.7,
68512,SPRINGBOK,SOUTH AFRICA,-29.671944444444446,17.8875,
68513,KOINGNAAS,SOUTH AFRICA,-30.195555555555554,17.290277777777778,
68514,HENKRIES,SOUTH AFRICA,-28.975555555555555,18.09611111111111,
68515,GARIES-GROENRIVIER,SOUTH AFRICA,-30.864722222222223,17.578888888888887,
68523,BRANDVLEI,SOUTH AFRICA,-30.46472222222222,20.47861111111111,
68524,VANWYKSVLEI,SOUTH AFRICA,-30.35,21.824444444444445,
68527,PRIESKA,SOUTH AFRICA,-29.666944444444447,22.733055555555556,
68538,DE AAR,SOUTH AFRICA,-30.674722222222222,23.999166666666667,
68541,FAURESMITH,SOUTH AFRICA,-29.45,25.19,
68543,GARIEP DAM,SOUTH AFRICA,-30.533333333333335,25.533333333333335,
68546,ALIWAL NORTH PLAATKOP,SOUTH AFRICA,-30.84111111111111,26.87611111111111,
68549,WEPENER,SOUTH AFRICA,-29.9,26.866944444444446,
68558,BARKLY EAST (CAERLEON),SOUTH AFRICA,-30.93,27.6,
68570,MATATIELE,SOUTH AFRICA,-30.34,28.80388888888889,
68572,SHALEBURN,SOUTH AFRICA,-29.786944444444448,29.352500000000003,
68575,IXOPO,SOUTH AFRICA,-30.15,30.066666666666666,
68577,KOKSTAD,SOUTH AFRICA,-30.50138888888889,29.397222222222222,
68579,PADDOCK,SOUTH AFRICA,-30.754444444444445,30.25777777777778,
68580,CEDARA,SOUTH AFRICA,-29.541944444444447,30.265,
68581,PIETERMARITZBURG,SOUTH AFRICA,-29.633055555555558,30.4,
68582,ORIBI AIRPORT,SOUTH AFRICA,-29.65,30.4,
68583,MOUNT EDGECOMBE,SOUTH AFRICA,-29.7,31.05,
68585,PENNINGTON SOUTH,SOUTH AFRICA,-30.391388888888887,30.685833333333335,
68587,PORT EDWARD,SOUTH AFRICA,-31.066944444444445,30.233055555555556,
68588,DURBAN INTNL. AIRPORT,SOUTH AFRICA,-29.965,30.946666666666665,
68589,GIANTS CASTLE,SOUTH AFRICA,-29.266944444444444,29.516944444444444,
68591,MARGATE,SOUTH AFRICA,-30.85,30.333055555555557,
68592,KING SHAKA INT'L AIRPORT,SOUTH AFRICA,-29.601666666666667,31.13,
68593,DURBAN-VIRGINIA,SOUTH AFRICA,-29.766944444444444,31.05,
68613,LAMBERTS BAY NORTIER,SOUTH AFRICA,-32.035,18.3325,
68614,VREDENDAL,SOUTH AFRICA,-31.673055555555557,18.496111111111112,
68618,CALVINIA,SOUTH AFRICA,-31.48222222222222,19.761944444444445,
68619,NIEUWOUDTVILLE,SOUTH AFRICA,-31.344444444444445,19.08972222222222,
68624,FRASERBURG,SOUTH AFRICA,-31.915277777777778,21.5075,
68633,NOUPOORT,SOUTH AFRICA,-31.188333333333333,24.96722222222222,
68647,QUEENSTOWN,SOUTH AFRICA,-31.9175,26.878333333333334,
68649,JAMESTOWN,SOUTH AFRICA,-31.121111111111112,26.809722222222224,
68651,ELLIOT,SOUTH AFRICA,-31.338055555555556,27.845,
68657,COFIMVABA,SOUTH AFRICA,-31.985,27.583333333333332,
68668,UMTATA,SOUTH AFRICA,-31.529999999999998,28.67,
68671,MAZEPPA BAY,SOUTH AFRICA,-32.45194444444445,28.634999999999998,
68673,BUTTERWORTH,SOUTH AFRICA,-32.251666666666665,28.11861111111111,
68674,CAPE HERMES,SOUTH AFRICA,-31.63,29.55,
68677,COFFEE BAY,SOUTH AFRICA,-31.950833333333332,29.133888888888887,
68711,CLANWILLIAM,SOUTH AFRICA,-32.17666666666666,18.888055555555557,
68712,CAPE COLUMBINE,SOUTH AFRICA,-32.82777777777778,17.855833333333333,
68713,PAARL,SOUTH AFRICA,-33.72166666666667,18.971944444444443,
68714,LANGEBAANWEG,SOUTH AFRICA,-32.972500000000004,18.157777777777778,
68715,MALMESBURY,SOUTH AFRICA,-33.472500000000004,18.71833333333333,
68717,PORTERVILLE,SOUTH AFRICA,-33.0125,18.97694444444444,
68718,ROBERTSON,SOUTH AFRICA,-33.79472222222222,19.884444444444444,
68719,EXCELSIOR CERES,SOUTH AFRICA,-32.962500000000006,19.430555555555557,
68722,SUTHERLAND,SOUTH AFRICA,-32.400277777777774,20.660833333333333,
68723,LAINGSBURG,SOUTH AFRICA,-33.19583333333333,20.870833333333334,
68727,BEAUFORT WEST,SOUTH AFRICA,-32.35722222222223,22.5775,
68737,GRAAFF-REINET,SOUTH AFRICA,-32.19333333333333,24.543055555555558,
68744,CRADOCK-MUN,SOUTH AFRICA,-32.16722222222222,25.62527777777778,
68747,FORT BEAUFORT,SOUTH AFRICA,-32.78805555555555,26.629444444444445,
68752,BISHO,SOUTH AFRICA,-32.9,27.279999999999998,
68754,DOHNE-AGR,SOUTH AFRICA,-32.535,27.467499999999998,
68811,GEELBEK,SOUTH AFRICA,-33.19611111111111,18.124166666666667,
68813,ROBBEN ISLAND,SOUTH AFRICA,-33.79888888888889,18.374444444444446,
68814,DASSEN ISLAND,SOUTH AFRICA,-33.4325,18.091388888888886,
68816,CAPE TOWN INTNL. AIRPORT,SOUTH AFRICA,-33.97,18.6,
68817,CAPE TOWN - PORTNET,SOUTH AFRICA,-33.91361111111111,18.453611111111112,
68819,MOLTENO RESERVIOR,SOUTH AFRICA,-33.9375,18.410833333333333,
68821,WORCESTER,SOUTH AFRICA,-33.663888888888884,19.418333333333333,
68825,LADISMITH,SOUTH AFRICA,-33.50083333333333,21.27583333333333,
68826,OUDTSHOORN,SOUTH AFRICA,-33.6,22.190833333333334,
68828,GEORGE AIRPORT,SOUTH AFRICA,-34.016666666666666,22.383333333333333,
68832,WILLOWMORE,SOUTH AFRICA,-33.30027777777777,23.483888888888888,
68833,JOUBERTINA,SOUTH AFRICA,-33.836111111111116,23.864444444444445,
68835,PATENSIE,SOUTH AFRICA,-33.765277777777776,24.823333333333334,
68837,NGQURA (COEGA),SOUTH AFRICA,-33.805,25.66888888888889,
68839,UITENHAGE,SOUTH AFRICA,-33.71416666666667,25.435,
68840,SOMERSET EAST,SOUTH AFRICA,-33.04972222222222,25.719166666666666,
68841,ADDO ELEPHANT PARK,SOUTH AFRICA,-33.44222222222222,25.748611111111114,
68842,PORT ELIZABETH,SOUTH AFRICA,-33.98444444444444,25.610833333333336,
68843,PORT ALFRED ARPORT,SOUTH AFRICA,-33.559444444444445,26.88111111111111,
68845,BIRD ISLAND,SOUTH AFRICA,-33.83888888888889,26.28611111111111,
68849,GRAHAMSTOWN,SOUTH AFRICA,-33.29055555555556,26.502777777777776,
68858,EAST LONDON,SOUTH AFRICA,-33.03,27.83,
68906,GOUGH ISLAND,SOUTH AFRICA,-40.35,-9.88,
68911,STRAND,SOUTH AFRICA,-34.14111111111111,18.848888888888887,
68912,SLANGKOP,SOUTH AFRICA,-34.14833333333333,18.319166666666668,
68915,CAPE POINT,SOUTH AFRICA,-34.353611111111114,18.489722222222223,
68916,CAPE POINT,SOUTH AFRICA,-34.353611111111114,18.489722222222223,
68918,HERMANUS,SOUTH AFRICA,-34.4325,19.22472222222222,
68920,CAPE AGULHAS,SOUTH AFRICA,-34.82638888888889,20.013055555555557,
68921,STRUISBAAI,SOUTH AFRICA,-34.80083333333333,20.05888888888889,
68923,TYGERHOEK,SOUTH AFRICA,-34.14861111111111,19.90222222222222,
68925,ELGIN EXP FARM,SOUTH AFRICA,-34.13944444444444,19.022777777777776,
68926,RIVERSDALE,SOUTH AFRICA,-34.09583333333334,21.254722222222224,
68927,STILBAAI,SOUTH AFRICA,-34.37083333333334,21.39638888888889,
68928,CAPE ST. BLAIZE,SOUTH AFRICA,-34.18944444444444,22.131944444444446,
68931,PLETTENBERG BAY,SOUTH AFRICA,-34.09388888888889,23.328888888888887,
68933,TSITSIKAMMA,SOUTH AFRICA,-34.026944444444446,23.90861111111111,
68935,KNYSNA,SOUTH AFRICA,-34.059444444444445,23.091388888888886,
68938,CAPE ST. FRANCIS,SOUTH AFRICA,-34.2,24.83277777777778,
68939,CAPE ST FRANCIS,SOUTH AFRICA,-34.21222222222222,24.85777777777778,
68994,MARION ISLAND,SOUTH AFRICA,-46.88305555555556,37.86694444444444,
68999,CT-AWS,SOUTH AFRICA,-33.962500000000006,18.602777777777778,
62801,RENK,SOUTH SUDAN,11.75,32.78333333333333,
62840,MALKAL,SOUTH SUDAN,9.55,31.65,
62871,RAGA,SOUTH SUDAN,8.466666666666667,25.683333333333334,
62880,WAU,SOUTH SUDAN,7.7,28.016666666666666,
62941,JUBA,SOUTH SUDAN,4.866666666666667,31.6,
60001,HIERRO/AEROPUERTO,SPAIN (CANARY ISLANDS),27.81888888888889,-17.88888888888889,
60005,LA PALMA/AEROPUERTO,SPAIN (CANARY ISLANDS),28.633055555555558,-17.755,
60007,LA GOMERA/AEROPUERTO,SPAIN (CANARY ISLANDS),28.029722222222222,-17.214444444444442,
60010,IZANA,SPAIN (CANARY ISLANDS),28.30888888888889,-16.499444444444446,
60015,TENERIFE/LOS RODEOS,SPAIN (CANARY ISLANDS),28.4775,-16.329444444444444,
60018,TENERIFE-GUIMAR,SPAIN (CANARY ISLANDS),28.31833333333333,-16.38222222222222,
60020,STA. CRUZ DE TENERIFE,SPAIN (CANARY ISLANDS),28.455,-16.24888888888889,
60025,TENERIFE SUR,SPAIN (CANARY ISLANDS),28.047500000000003,-16.560833333333335,
60028,ARTENARA,SPAIN (CANARY ISLANDS),28.01861111111111,-15.614444444444445,
60030,LAS PALMAS DE GRAN CANARIA/GANDO,SPAIN (CANARY ISLANDS),27.9225,-15.389444444444443,
60035,FUERTEVENTURA/AEROPUERTO,SPAIN (CANARY ISLANDS),28.44472222222222,-13.863055555555555,
60040,LANZAROTE/AEROPUERTO,SPAIN (CANARY ISLANDS),28.951944444444443,-13.600277777777777,
60320,CEUTA,SPAIN (CEUTA AND MELILLA),35.91305555555555,-5.344444444444444,
60338,MELILLA,SPAIN (CEUTA AND MELILLA),35.27777777777778,-2.9555555555555557,
62600,WADI HALFA,SUDAN,21.816666666666666,31.35,
62615,HALIB,SUDAN,22.216666666666665,36.65,
62620,STATION NO 6,SUDAN,20.75,32.55,
62635,ARBAT,SUDAN,19.833333333333332,36.96666666666667,
62640,ABU HAMED,SUDAN,19.533333333333335,33.31666666666667,
62641,PORT SUDAN,SUDAN,19.583333333333332,37.21666666666667,
62650,DONGOLA,SUDAN,19.166666666666668,30.483333333333334,
62652,SUAKIN,SUDAN,19.1,37.333333333333336,
62660,KARIMA,SUDAN,18.55,31.85,
62671,TOKAR,SUDAN,18.433333333333334,37.733333333333334,
62675,AGIG,SUDAN,18.233333333333334,38.18333333333333,
62680,ATBARA,SUDAN,17.7,33.96666666666667,
62682,HUDEIBA,SUDAN,17.566666666666666,33.93333333333333,
62700,SHENDI,SUDAN,16.7,33.43333333333333,
62721,KHARTOUM,SUDAN,15.6,32.55,
62722,AROMA,SUDAN,15.833333333333334,36.15,
62723,SHAMBAT OBSERVATORY,SUDAN,15.666666666666666,32.53333333333333,
62730,KASSALA,SUDAN,15.466666666666667,36.4,
62733,HALFA EL GAIDIDA,SUDAN,15.316666666666666,35.6,
62750,ED DUEIM,SUDAN,14.0,32.333333333333336,
62751,WAD MEDANI,SUDAN,14.4,33.483333333333334,
62752,GEDAREF,SUDAN,14.033333333333333,35.4,
62760,EL FASHER,SUDAN,13.616666666666667,25.333333333333332,
62762,SENNAR,SUDAN,13.55,33.61666666666667,
62770,GENINA,SUDAN,13.483333333333333,22.45,
62771,EL OBEID,SUDAN,13.166666666666666,30.233333333333334,
62772,KOSTI,SUDAN,13.166666666666666,32.666666666666664,
62774,UMM BENIN,SUDAN,13.066666666666666,33.95,
62781,EN NAHUD,SUDAN,12.7,28.433333333333334,
62790,NYALA,SUDAN,12.05,24.883333333333333,
62795,ABU NA'AMA,SUDAN,12.733333333333333,34.13333333333333,
62803,RASHAD,SUDAN,11.866666666666667,31.05,
62805,DAMAZINE,SUDAN,11.783333333333333,34.38333333333333,
62809,BABANUSA,SUDAN,11.333333333333334,27.816666666666666,
62810,KADOGLLI,SUDAN,11.0,29.716666666666665,
68298,LOMAHASHA,SWAZILAND,-25.983333333333334,31.983333333333334,
68299,PIGGS PEAK,SWAZILAND,-25.966666666666665,31.25,
68390,MAYIWANE,SWAZILAND,-25.883333333333333,31.5,
68391,MBABANE,SWAZILAND,-26.333333333333332,31.133333333333333,
68392,NHLANGANO,SWAZILAND,-27.05,31.1,
68393,LAVUMISA,SWAZILAND,-27.266666666666666,31.816666666666666,
68394,LUBOVANE,SWAZILAND,-26.735833333333336,31.702222222222222,
68395,HLATHIKHULU,SWAZILAND,-26.966666666666665,31.316666666666666,
68396,MANZINI/MATSAPA AIRPORT,SWAZILAND,-26.533333333333335,31.3,
68398,SITEKI,SWAZILAND,-26.433333333333334,31.95,
68399,BIG BEND,SWAZILAND,-26.85,31.916666666666668,
65351,DAPAON,TOGO,10.866666666666667,0.25,
65352,MANGO,TOGO,10.366666666666667,0.4666666666666667,
65355,NIAMTOUGOU,TOGO,9.766666666666667,1.1,
65357,KARA,TOGO,9.55,1.1666666666666667,
65361,SOKODE,TOGO,8.983333333333333,1.15,
65376,ATAKPAME,TOGO,7.583333333333333,1.1166666666666667,
65378,KOUMA-KONDA,TOGO,6.95,0.5833333333333334,
65380,TABLIGBO,TOGO,6.583333333333333,1.5,
65387,LOME,TOGO,6.166666666666667,1.25,
60710,TABARKA,TUNISIA,36.95,8.75,
60714,BIZERTE,TUNISIA,37.25,9.8,
60715,TUNIS-CARTHAGE,TUNISIA,36.833333333333336,10.233333333333333,
60720,KELIBIA,TUNISIA,36.85,11.083333333333334,
60723,BEJA,TUNISIA,36.733333333333334,9.183333333333334,
60725,JENDOUBA,TUNISIA,36.483333333333334,8.8,
60728,NABEUL,TUNISIA,36.46666666666667,10.7,
60729,ZAGHOUAN,TUNISIA,36.43333333333333,10.083333333333334,
60731,ENFIDHA,TUNISIA,36.06666666666667,10.45,
60732,LE KEF,TUNISIA,36.13333333333333,8.7,
60734,SILIANA,TUNISIA,36.06666666666667,9.366666666666667,
60735,KAIROUAN,TUNISIA,35.666666666666664,10.1,
60738,THALA,TUNISIA,35.55,8.683333333333334,
60739,KASSERINE,TUNISIA,35.166666666666664,8.833333333333334,
60740,MONASTIR-SKANES,TUNISIA,35.666666666666664,10.75,
60742,MAHDIA,TUNISIA,35.5,11.066666666666666,
60745,GAFSA,TUNISIA,34.416666666666664,8.816666666666666,
60748,SIDI BOUZID,TUNISIA,35.0,9.483333333333333,
60750,SFAX EL-MAOU,TUNISIA,34.71666666666667,10.683333333333334,
60760,TOZEUR,TUNISIA,33.916666666666664,8.166666666666666,
60764,KEBILI,TUNISIA,33.7,8.966666666666667,
60765,GABES,TUNISIA,33.88333333333333,10.1,
60767,GABES MATMATA,TUNISIA,33.733333333333334,9.916666666666666,
60769,DJERBA MELLITA,TUNISIA,33.86666666666667,10.766666666666667,
60770,MEDENINE,TUNISIA,33.35,10.483333333333333,
60772,TATAOUINE,TUNISIA,32.916666666666664,10.45,
60775,REMADA,TUNISIA,32.31666666666667,10.4,
60780,EL BORMA,TUNISIA,31.683333333333334,9.3,
63602,ARUA,UGANDA,3.05,30.916666666666668,
63628,PARAA,UGANDA,2.3,31.583333333333332,
63630,GULU,UGANDA,2.75,32.333333333333336,
63654,MASINDI,UGANDA,1.6833333333333333,31.716666666666665,
63658,SOROTI,UGANDA,1.7166666666666668,33.61666666666667,
63674,KASESE,UGANDA,0.18333333333333332,30.1,
63680,KAMPALA,UGANDA,0.31666666666666665,32.61666666666667,
63682,JINJA,UGANDA,0.45,33.18333333333333,
63684,TORORO,UGANDA,0.6833333333333333,34.166666666666664,
63702,MBARARA,UGANDA,-0.6166666666666667,30.65,
63705,ENTEBBE AIRPORT,UGANDA,0.05,32.45,
63726,KABALE,UGANDA,-1.25,29.983333333333334,
63729,BUKOBA,UNITED REPUBLIC OF TANZANIA,-1.3333333333333333,31.816666666666666,
63733,MUSOMA,UNITED REPUBLIC OF TANZANIA,-1.5,33.8,
63756,MWANZA,UNITED REPUBLIC OF TANZANIA,-2.466666666666667,32.916666666666664,
63784,SHINYANGA,UNITED REPUBLIC OF TANZANIA,-3.65,33.35,
63789,ARUSHA,UNITED REPUBLIC OF TANZANIA,-3.3333333333333335,36.61666666666667,
63790,MOSHI,UNITED REPUBLIC OF TANZANIA,-3.35,37.333333333333336,
63791,KILIMANJARO INT,UNITED REPUBLIC OF TANZANIA,-3.4166666666666665,37.06666666666667,
63801,KIGOMA,UNITED REPUBLIC OF TANZANIA,-4.883333333333333,29.633333333333333,
63810,SINGIDA,UNITED REPUBLIC OF TANZANIA,-4.8,34.71666666666667,
63816,SAME,UNITED REPUBLIC OF TANZANIA,-4.083333333333333,37.71666666666667,
63832,TABORA AIRPORT,UNITED REPUBLIC OF TANZANIA,-5.083333333333333,32.833333333333336,
63840,HANDENI,UNITED REPUBLIC OF TANZANIA,-5.433333333333334,38.03333333333333,
63844,TANGA,UNITED REPUBLIC OF TANZANIA,-5.083333333333333,39.06666666666667,
63845,PEMBA/KARUME,UNITED REPUBLIC OF TANZANIA,-5.25,39.81666666666667,
63862,DODOMA,UNITED REPUBLIC OF TANZANIA,-6.166666666666667,35.766666666666666,
63866,MOROGORO,UNITED REPUBLIC OF TANZANIA,-6.833333333333333,37.65,
63870,ZANZIBAR/KISAUNI,UNITED REPUBLIC OF TANZANIA,-6.216666666666667,39.21666666666667,
63881,SUMBAWANGA,UNITED REPUBLIC OF TANZANIA,-7.966666666666667,31.633333333333333,
63887,IRINGA,UNITED REPUBLIC OF TANZANIA,-7.666666666666667,35.75,
63894,DAR ES SALAAM INT,UNITED REPUBLIC OF TANZANIA,-6.866666666666667,39.2,
63895,MAFIA/KILINDONI,UNITED REPUBLIC OF TANZANIA,-7.916666666666667,39.666666666666664,
63932,MBEYA,UNITED REPUBLIC OF TANZANIA,-8.933333333333334,33.46666666666667,
63936,MAHENGE,UNITED REPUBLIC OF TANZANIA,-8.666666666666666,36.71666666666667,
63962,SONGEA,UNITED REPUBLIC OF TANZANIA,-10.683333333333334,35.583333333333336,
63969,NACHINGWEA,UNITED REPUBLIC OF TANZANIA,-10.35,38.75,
63971,MTWARA,UNITED REPUBLIC OF TANZANIA,-10.266666666666667,40.18333333333333,
60033,LAAYOUNE,WESTERN SAHARA,27.166666666666668,-13.216666666666667,
60096,DAKHLA,WESTERN SAHARA,23.711111111111112,-15.930833333333332,
67403,KAWAMBWA,ZAMBIA,-9.8,29.083333333333332,
67413,MBALA,ZAMBIA,-8.85,31.333333333333332,
67441,MWINILUNGA,ZAMBIA,-11.75,24.433333333333334,
67461,MANSA,ZAMBIA,-11.1,28.85,
67469,SAMFYA,ZAMBIA,-11.366666666666667,29.9,
67475,KASAMA,ZAMBIA,-10.216666666666667,31.133333333333333,
67476,MISAMFU,ZAMBIA,-10.1,31.25,
67477,MPIKA,ZAMBIA,-11.9,31.433333333333334,
67481,ISOKA,ZAMBIA,-10.116666666666667,32.63333333333333,
67531,ZAMBEZI,ZAMBIA,-13.533333333333333,23.116666666666667,
67541,KASEMPA,ZAMBIA,-13.533333333333333,25.85,
67543,KABOMPO,ZAMBIA,-13.6,24.2,
67551,SOLWEZI,ZAMBIA,-12.183333333333334,26.383333333333333,
67561,NDOLA,ZAMBIA,-13.0,28.65,
67563,KAFIRONDA,ZAMBIA,-12.6,28.116666666666667,
67571,SERENJE,ZAMBIA,-13.233333333333333,30.216666666666665,
67575,MKUSHI,ZAMBIA,-13.633333333333333,29.433333333333334,
67580,MSEKERA,ZAMBIA,-13.65,32.56666666666667,
67581,CHIPATA,ZAMBIA,-13.55,32.583333333333336,
67583,LUNDAZI,ZAMBIA,-12.283333333333333,33.2,
67599,MFUWE,ZAMBIA,-13.266666666666667,31.933333333333334,
67625,KALABO,ZAMBIA,-14.85,22.7,
67633,MONGU,ZAMBIA,-15.25,23.15,
67641,KAOMA,ZAMBIA,-14.8,24.8,
67655,MUMBWA,ZAMBIA,-15.066666666666666,27.183333333333334,
67659,KAFUE POLDER,ZAMBIA,-15.766666666666667,27.916666666666668,
67662,KABWE AGRIC,ZAMBIA,-14.4,28.5,
67663,KABWE,ZAMBIA,-14.45,28.466666666666665,
67665,LUSAKA INTERNATIONAL AIRPORT,ZAMBIA,-15.316666666666666,28.45,
67666,LUSAKA CITY AIRPORT,ZAMBIA,-15.416666666666666,28.466666666666665,
67667,MOUNT MAKULU,ZAMBIA,-15.55,28.25,
67673,PETAUKE,ZAMBIA,-14.25,31.283333333333335,
67731,SENANGA,ZAMBIA,-16.1,23.266666666666666,
67741,SESHEKE,ZAMBIA,-17.466666666666665,24.3,
67743,LIVINGSTONE,ZAMBIA,-17.816666666666666,25.816666666666666,
67751,MAGOYE,ZAMBIA,-16.0,27.6,
67753,CHOMA,ZAMBIA,-16.833333333333332,27.066666666666666,
67755,BINGA,ZIMBABWE,-17.616666666666667,27.333333333333332,
67761,KARIBA,ZIMBABWE,-16.516666666666666,28.883333333333333,
67765,KAROI,ZIMBABWE,-16.833333333333332,29.616666666666667,
67767,KANYEMBA,ZIMBABWE,-15.633333333333333,30.416666666666668,
67771,CHINHOYI,ZIMBABWE,-17.366666666666667,30.2,
67773,GURUVE,ZIMBABWE,-16.65,30.7,
67774,HARARE (BELVEDERE),ZIMBABWE,-17.833333333333332,31.016666666666666,
67775,HARARE (KUTSAGA),ZIMBABWE,-17.916666666666668,31.133333333333333,
67779,MOUNT DARWIN,ZIMBABWE,-16.783333333333335,31.583333333333332,
67781,MUTOKO,ZIMBABWE,-17.416666666666668,32.21666666666667,
67785,HERNDERSON,ZIMBABWE,-17.583333333333332,30.966666666666665,
67789,MVURWI,ZIMBABWE,-17.033333333333335,30.983333333333334,
67843,VICTORIA FALLS,ZIMBABWE,-18.1,25.85,
67853,HWANGE NATIONAL PARK,ZIMBABWE,-18.633333333333333,27.0,
67861,GOKWE,ZIMBABWE,-18.216666666666665,28.933333333333334,
67863,NKAYI,ZIMBABWE,-19.0,28.9,
67865,KWEKWE,ZIMBABWE,-18.933333333333334,29.833333333333332,
67867,GWERU,ZIMBABWE,-19.45,29.85,
67869,KADOMA,ZIMBABWE,-18.316666666666666,29.883333333333333,
67871,CHIVHU,ZIMBABWE,-19.033333333333335,30.883333333333333,
67875,BUHERA,ZIMBABWE,-19.316666666666666,31.433333333333334,
67877,GRASSLANDS,ZIMBABWE,-18.183333333333334,31.466666666666665,
67881,RUSAPE,ZIMBABWE,-18.533333333333335,32.13333333333333,
67889,WYANGA,ZIMBABWE,-18.283333333333335,32.75,
67891,MHONDORO,ZIMBABWE,-19.316666666666666,30.6,
67895,MUKANDI,ZIMBABWE,-18.716666666666665,32.85,
67897,CHISENGU,ZIMBABWE,-19.883333333333333,32.88333333333333,
67899,WEDZA,ZIMBABWE,-18.616666666666667,31.566666666666666,
67951,PLUMTREE,ZIMBABWE,-20.483333333333334,27.8,
67961,KEZI,ZIMBABWE,-20.916666666666668,28.45,
67963,MATOPOS,ZIMBABWE,-20.383333333333333,28.55,
67964,BULAWAYO (GOETZ OBSY.),ZIMBABWE,-20.15,28.616666666666667,
67965,BULAWAYO AIRPORT,ZIMBABWE,-20.016666666666666,28.616666666666667,
67967,TULI,ZIMBABWE,-21.383333333333333,28.983333333333334,
67969,WEST NICHOLSON,ZIMBABWE,-21.05,29.366666666666667,
67971,ZVISHAVANE,ZIMBABWE,-20.316666666666666,30.066666666666666,
67974,MAKOHOLI,ZIMBABWE,-19.833333333333332,30.783333333333335,
67975,MASVINGO,ZIMBABWE,-20.066666666666666,30.866666666666667,
67976,RUPIKE,ZIMBABWE,-20.55,31.083333333333332,
67977,BUFFALO RANGE,ZIMBABWE,-21.016666666666666,31.583333333333332,
67979,ZAKA,ZIMBABWE,-20.333333333333332,31.466666666666665,
67983,CHIPINGE,ZIMBABWE,-20.2,32.61666666666667,
67991,BEITBRIDGE,ZIMBABWE,-22.216666666666665,30.0,
40904,FAIZABAD,"AFGHANISTAN, ISLAMIC STATE OF",37.11666666666667,70.51666666666667,
40905,SHIGHNAN,"AFGHANISTAN, ISLAMIC STATE OF",37.56666666666667,71.5,
40906,ANDKHOI,"AFGHANISTAN, ISLAMIC STATE OF",36.93333333333333,65.11666666666666,
40908,SHEBIRGHAN,"AFGHANISTAN, ISLAMIC STATE OF",36.666666666666664,65.71666666666667,
40909,QAR-QIN,"AFGHANISTAN, ISLAMIC STATE OF",37.416666666666664,66.08333333333333,
40911,MAZAR-I-SHARIF,"AFGHANISTAN, ISLAMIC STATE OF",36.7,67.2,
40913,KUNDUZ,"AFGHANISTAN, ISLAMIC STATE OF",36.666666666666664,68.91666666666667,
40914,BAGHLAN-FARM,"AFGHANISTAN, ISLAMIC STATE OF",36.1,68.65,
40916,HAIRATAN,"AFGHANISTAN, ISLAMIC STATE OF",37.21666666666667,67.41666666666667,
40918,ISKACHEM,"AFGHANISTAN, ISLAMIC STATE OF",36.7,71.56666666666666,
40920,ZEBAK,"AFGHANISTAN, ISLAMIC STATE OF",36.5,71.25,
40921,TURGHUNDI,"AFGHANISTAN, ISLAMIC STATE OF",35.233333333333334,62.28333333333333,
40922,MIMANA,"AFGHANISTAN, ISLAMIC STATE OF",35.93333333333333,64.76666666666667,
40923,BALA-MOORGHAB,"AFGHANISTAN, ISLAMIC STATE OF",35.583333333333336,63.31666666666667,
40925,QAISAR,"AFGHANISTAN, ISLAMIC STATE OF",35.666666666666664,64.26666666666667,
40930,NORTH-SALANG,"AFGHANISTAN, ISLAMIC STATE OF",35.31666666666667,69.01666666666667,
40931,SOUTH-SALANG,"AFGHANISTAN, ISLAMIC STATE OF",35.3,69.06666666666666,
40932,JABUL-SARAJ,"AFGHANISTAN, ISLAMIC STATE OF",35.13333333333333,69.25,
40935,ISLAM-QALA,"AFGHANISTAN, ISLAMIC STATE OF",34.65,61.583333333333336,
40937,QALA-I-NOW,"AFGHANISTAN, ISLAMIC STATE OF",35.0,63.11666666666667,
40938,HERAT,"AFGHANISTAN, ISLAMIC STATE OF",34.21666666666667,62.21666666666667,
40940,OBE,"AFGHANISTAN, ISLAMIC STATE OF",34.36666666666667,63.15,
40942,CHAKHCHARAN,"AFGHANISTAN, ISLAMIC STATE OF",33.53333333333333,65.26666666666667,
40945,BAMIYAN,"AFGHANISTAN, ISLAMIC STATE OF",34.81666666666667,67.81666666666666,
40948,KABUL AIRPORT,"AFGHANISTAN, ISLAMIC STATE OF",34.55,69.21666666666667,
40949,KARIZIMIR,"AFGHANISTAN, ISLAMIC STATE OF",34.63333333333333,69.05,
40950,LOGAR,"AFGHANISTAN, ISLAMIC STATE OF",34.1,69.05,
40951,SAROBI,"AFGHANISTAN, ISLAMIC STATE OF",34.583333333333336,69.75,
40952,LAGHMAN,"AFGHANISTAN, ISLAMIC STATE OF",34.65,70.21666666666667,
40953,GHAZIABAD,"AFGHANISTAN, ISLAMIC STATE OF",34.31666666666667,70.76666666666667,
40954,JALALABAD,"AFGHANISTAN, ISLAMIC STATE OF",34.43333333333333,70.46666666666667,
40957,SHINDAND,"AFGHANISTAN, ISLAMIC STATE OF",33.4,62.28333333333333,
40968,GHAZNI,"AFGHANISTAN, ISLAMIC STATE OF",33.53333333333333,68.41666666666667,
40970,GARDIZ,"AFGHANISTAN, ISLAMIC STATE OF",33.61666666666667,69.23333333333333,
40971,KHOST,"AFGHANISTAN, ISLAMIC STATE OF",33.35,69.95,
40974,FARAH,"AFGHANISTAN, ISLAMIC STATE OF",32.36666666666667,62.18333333333333,
40977,TIRIN KOT,"AFGHANISTAN, ISLAMIC STATE OF",32.61666666666667,65.86666666666666,
40980,MOKUR,"AFGHANISTAN, ISLAMIC STATE OF",32.833333333333336,67.78333333333333,
40984,URGOON,"AFGHANISTAN, ISLAMIC STATE OF",32.916666666666664,69.13333333333334,
40986,ZARANJ,"AFGHANISTAN, ISLAMIC STATE OF",31.0,61.85,
40988,BUST,"AFGHANISTAN, ISLAMIC STATE OF",31.55,64.36666666666666,
40990,KANDAHAR AIRPORT,"AFGHANISTAN, ISLAMIC STATE OF",31.5,65.85,
40996,DESHOO,"AFGHANISTAN, ISLAMIC STATE OF",30.433333333333334,63.3,
41150,BAHRAIN (INT. AIRPORT),BAHRAIN,26.266666666666666,50.65,
41151,JARIM,BAHRAIN,26.483333333333334,50.583333333333336,
41152,HAWAR ISLAND,BAHRAIN,25.716666666666665,50.78333333333333,
41153,KING FAHAD CAUSEWAY,BAHRAIN,26.183333333333334,50.31666666666667,
41154,JABAL AL DUKHAN,BAHRAIN,26.033333333333335,50.53333333333333,
41155,F1 (FORMULA 1),BAHRAIN,26.016666666666666,50.5,
41156,RAS AL BAR,BAHRAIN,25.85,50.55,
41850,"TETULIA, PANCHAGOR",BANGLADESH,26.344166666666666,88.60722222222222,
41851,"DIMLA, NILPHAMARI",BANGLADESH,26.085833333333333,88.55749999999999,
41852,THAKURGAON,BANGLADESH,26.016666666666666,88.4,
41856,"RAJARHAT, KURIGRAM",BANGLADESH,25.798333333333336,89.545,
41858,SAIDPUR,BANGLADESH,25.75,88.91666666666667,
41859,RANGPUR,BANGLADESH,25.733333333333334,89.23333333333333,
41863,DINAJPUR,BANGLADESH,25.65,88.68333333333334,
41881,"BADALGACHHI, NAOGAON",BANGLADESH,24.580555555555556,88.53666666666666,
41883,BOGRA,BANGLADESH,24.85,89.36666666666666,
41884,JAMALPUR,BANGLADESH,24.933333333333334,89.95,
41886,MYMENSINGH,BANGLADESH,24.716666666666665,90.43333333333334,
41888,NETROKONA SADAR,BANGLADESH,24.88611111111111,90.72916666666667,
41890,SYLHET A.P.,BANGLADESH,24.966666666666665,91.88333333333334,
41891,SYLHET,BANGLADESH,24.9,91.88333333333334,
41895,RAJSHAHI,BANGLADESH,24.366666666666667,88.7,
41897,"TARASH, SIRAJGANI",BANGLADESH,24.259444444444444,89.22916666666667,
41898,SERAJGONJ,BANGLADESH,24.45,89.7,
41902,"NIKLI, KISHORGANJ",BANGLADESH,24.325277777777778,90.93916666666667,
41907,ISHWARDI,BANGLADESH,24.133333333333333,89.05,
41909,TANGAIL,BANGLADESH,24.25,89.93333333333334,
41915,SRIMANGAL,BANGLADESH,24.3,91.73333333333333,
41921,JOYDEVPUR,BANGLADESH,23.983333333333334,90.41666666666667,
41922,"KURMITOLA, DIA",BANGLADESH,23.85,90.4,
41923,DHAKA,BANGLADESH,23.766666666666666,90.38333333333334,
41926,CHUADANGA,BANGLADESH,23.65,88.81666666666666,
41927,"KUMARKHALI, KUSHTIA",BANGLADESH,23.52,89.1463888888889,
41929,FARIDPUR,BANGLADESH,23.6,89.85,
41933,COMILLA,BANGLADESH,23.433333333333334,91.18333333333334,
41936,JESSORE,BANGLADESH,23.183333333333334,89.16666666666667,
41938,GOPALGANJ SADAR,BANGLADESH,23.013055555555557,89.82249999999999,
41939,MADARIPUR,BANGLADESH,23.166666666666668,90.18333333333334,
41941,CHANDPUR,BANGLADESH,23.266666666666666,90.7,
41943,FENI,BANGLADESH,23.033333333333335,91.41666666666667,
41944,"DIGHINALA, KHAGRACHHORI",BANGLADESH,23.240833333333335,92.06416666666667,
41946,SATKHIRA,BANGLADESH,22.716666666666665,89.08333333333333,
41947,KHULNA,BANGLADESH,22.783333333333335,89.53333333333333,
41950,BARISAL,BANGLADESH,22.75,90.36666666666666,
41951,BHOLA,BANGLADESH,22.683333333333334,90.65,
41953,MAIJDICOURT,BANGLADESH,22.866666666666667,91.1,
41955,"SAINT MARTIN, COX'S BAZAR",BANGLADESH,20.602777777777778,92.32833333333333,
41958,MONGLA,BANGLADESH,22.6,89.5,
41960,PATUAKHALI,BANGLADESH,22.333333333333332,90.33333333333333,
41963,HATIA,BANGLADESH,22.433333333333334,91.1,
41964,SANDWIP,BANGLADESH,22.483333333333334,91.43333333333334,
41965,SITAKUNDU,BANGLADESH,22.583333333333332,91.7,
41966,RANGAMATI,BANGLADESH,22.533333333333335,92.2,
41967,KAPTAI,BANGLADESH,22.483333333333334,92.23333333333333,
41977,CHITTAGONG (AMBAGAN),BANGLADESH,22.35,91.81666666666666,
41978,CHITTAGONG (PATENGA),BANGLADESH,22.266666666666666,91.81666666666666,
41980,BANDARBAN SADAR,BANGLADESH,22.199722222222224,92.21666666666667,
41984,KHEPUPARA,BANGLADESH,21.983333333333334,90.23333333333333,
41989,KUTUBDIA,BANGLADESH,21.816666666666666,91.85,
41992,COX'S BAZAR,BANGLADESH,21.433333333333334,91.93333333333334,
41998,TEKNAF,BANGLADESH,20.866666666666667,92.3,
44517,TSAMPA,BHUTAN,27.860000000000003,90.6588888888889,
48962,BATTAMBANG,CAMBODIA,13.1,103.2,
48963,PAILIN,CAMBODIA,12.8,102.6,
48964,PREAH VIHEAR,CAMBODIA,14.1,105.15,
48965,KOMPONG THOM,CAMBODIA,12.683333333333334,104.9,
48966,SIEMREAP,CAMBODIA,13.366666666666667,103.85,
48967,KOMPONG CHNANG,CAMBODIA,12.216666666666667,104.66666666666667,
48968,PURSAT,CAMBODIA,12.55,103.85,
48969,BANTEAY MEANCHEY,CAMBODIA,13.616666666666667,102.96666666666667,
48970,KRATIE,CAMBODIA,12.483333333333333,106.16666666666667,
48971,MONDOL KIRI,CAMBODIA,12.45,107.18333333333334,
48972,STUNG TRENG,CAMBODIA,13.516666666666667,105.96666666666667,
48973,RATTANAKIRI,CAMBODIA,13.733333333333333,106.98333333333333,
48978,SEN MONOROM,CAMBODIA,12.416666666666666,107.16666666666667,
48982,KOS KONG,CAMBODIA,11.616666666666667,103.0,
48983,SIHANOUK VILLE,CAMBODIA,10.633333333333333,103.48333333333333,
48985,KAMPOT,CAMBODIA,10.6,104.18333333333334,
48986,KOH KONG,CAMBODIA,11.633333333333333,102.98333333333333,
48990,KANDAL,CAMBODIA,11.6,104.81666666666666,
48991,PHNOM-PENH (KHMOUGH),CAMBODIA,11.6,104.86666666666666,
48992,KOMPONG SPEU,CAMBODIA,11.466666666666667,104.56666666666666,
48993,TAKEO,CAMBODIA,10.983333333333333,104.8,
48995,KOMPONG-CHAM,CAMBODIA,12.0,105.45,
48997,PREY VENG,CAMBODIA,11.466666666666667,105.31666666666666,
48998,SVAY RIENG,CAMBODIA,11.083333333333334,105.8,
50136,MOHE,CHINA,52.97083333333334,122.53027777777778,
50353,HUMA,CHINA,51.733333333333334,126.63333333333334,
50434,TULIHE,CHINA,50.483333333333334,121.68333333333334,
50468,AIHUI,CHINA,50.25,127.45,
50527,HAILAR,CHINA,49.25,119.7,
50527,HAILAR,CHINA,49.25,119.7,
50548,XIAO'ERGOU,CHINA,49.2,123.71666666666667,
50557,NENJIANG,CHINA,49.166666666666664,125.23333333333333,
50564,SUNWU,CHINA,49.43333333333333,127.35,
50603,XIN BARAG YOUQI,CHINA,48.678888888888885,116.81,
50632,BUGT,CHINA,48.766666666666666,121.91666666666667,
50658,KESHAN,CHINA,48.05,125.88333333333334,
50727,ARXAN,CHINA,47.166666666666664,119.93333333333334,
50745,QIQIHAR,CHINA,47.38333333333333,123.91666666666667,
50756,HAILUN,CHINA,47.445277777777775,126.87444444444444,
50774,YICHUN,CHINA,47.7,128.83333333333334,
50774,YICHUN,CHINA,47.71666666666667,128.83333333333334,
50788,FUJIN,CHINA,47.233333333333334,131.98333333333332,
50844,TAILAI,CHINA,46.4,123.45,
50854,ANDA,CHINA,46.38333333333333,125.31666666666666,
50888,BAOQING,CHINA,46.31666666666667,132.18333333333334,
50915,ULIASTAI,CHINA,45.516666666666666,116.96666666666667,
50949,QIAN GORLOS,CHINA,45.083333333333336,124.86666666666666,
50953,HARBIN,CHINA,45.93333333333333,126.56666666666666,
50953,HARBIN,CHINA,45.93333333333333,126.56666666666666,
50963,TONGHE,CHINA,45.96666666666667,128.73333333333332,
50968,SHANGZHI,CHINA,45.21666666666667,127.96666666666667,
50978,JIXI,CHINA,45.3,130.91666666666666,
50983,HULIN,CHINA,45.766666666666666,132.96666666666667,
51053,KABA HE,CHINA,48.05,86.35,
51076,ALTAY,CHINA,47.733333333333334,88.08333333333333,
51087,FUYUN,CHINA,46.983333333333334,89.51666666666667,
51133,TACHENG,CHINA,46.733333333333334,83.0,
51156,HOBOKSAR,CHINA,46.809999999999995,85.74888888888889,
51243,KARAMAY,CHINA,45.61666666666667,84.85,
51288,BAYTIK SHAN,CHINA,45.36666666666667,90.53333333333333,
51334,JINGHE,CHINA,44.56666666666667,82.81666666666666,
51379,QITAI,CHINA,44.016666666666666,89.56666666666666,
51431,YINING,CHINA,43.95,81.33333333333333,
51463,WU LU MU QI,CHINA,43.78333333333333,87.65,
51463,WU LU MU QI,CHINA,43.78333333333333,87.61666666666666,
51467,BALGUNTAY,CHINA,42.666666666666664,86.33333333333333,
51495,SHISANJIANFANG,CHINA,43.21666666666667,91.73333333333333,
51542,BAYANBULAK,CHINA,43.03333333333333,84.15,
51573,TURPAN,CHINA,42.95,89.22972222222222,
51644,KUQA,CHINA,41.71666666666667,82.95,
51656,KORLA,CHINA,41.72944444444445,85.81861111111111,
51709,KASHI,CHINA,39.483333333333334,75.75,
51711,AKQI,CHINA,40.93333333333333,78.45,
51716,BACHU,CHINA,39.8,78.56666666666666,
51730,ALAR,CHINA,40.5,81.05,
51747,TAZHONG,CHINA,39.0,83.66666666666667,
51765,TIKANLIK,CHINA,40.63333333333333,87.7,
51777,RUOQIANG,CHINA,39.03333333333333,88.16666666666667,
51811,SHACHE,CHINA,38.43333333333333,77.26666666666667,
51818,PISHAN,CHINA,37.61666666666667,78.28333333333333,
51828,HOTAN,CHINA,37.13333333333333,79.93333333333334,
51839,MINFENG,CHINA,37.06666666666667,82.71666666666667,
51886,MANGNAI,CHINA,38.25,90.85,
52112,NAOMAOHU,CHINA,43.6,95.13333333333334,
52118,YIWU,CHINA,43.266666666666666,94.7,
52203,HAMI,CHINA,42.81666666666667,93.51666666666667,
52267,EJIN QI,CHINA,41.95,101.06666666666666,
52323,MAZONG SHAN,CHINA,41.8,97.03333333333333,
52378,GUAIZIHU,CHINA,41.36666666666667,102.36666666666666,
52418,DUNHUANG,CHINA,40.15,94.68333333333334,
52436,YUMENZHEN,CHINA,40.266666666666666,97.03333333333333,
52495,BAYAN MOD,CHINA,40.75,104.5,
52533,JIUQUAN,CHINA,39.766666666666666,98.48333333333333,
52602,LENGHU,CHINA,38.833333333333336,93.38333333333334,
52652,ZHANGYE,CHINA,39.083333333333336,100.28333333333333,
52681,MINQIN,CHINA,38.63333333333333,103.08333333333333,
52713,DA-QAIDAM,CHINA,37.85,95.36666666666666,
52737,DELINGHA,CHINA,37.36666666666667,97.36666666666666,
52754,GANGCA,CHINA,37.333333333333336,100.13333333333334,
52787,WUSHAOLING,CHINA,37.2,102.86666666666666,
52818,GOLMUD,CHINA,36.416666666666664,94.9,
52836,DOULAN,CHINA,36.3,98.1,
52866,XINING,CHINA,36.61666666666667,101.76666666666667,
52866,XINING,CHINA,36.71666666666667,101.75,
52908,WUDAOLIANG,CHINA,35.21666666666667,93.08333333333333,
52955,GUINAN,CHINA,35.583333333333336,100.75,
52983,YU ZHONG,CHINA,35.86666666666667,104.15,
52996,HUAJIALING,CHINA,35.38333333333333,105.0,
53068,ERENHOT,CHINA,43.65,112.0,
53068,ERENHOT,CHINA,43.63333333333333,111.95,
53083,NARAN BULAG,CHINA,44.61666666666667,114.15,
53149,MANDAL,CHINA,42.53333333333333,110.13333333333334,
53192,ABAG QI,CHINA,44.016666666666666,115.00333333333333,
53231,HAILS,CHINA,41.45,106.38333333333334,
53276,JURH,CHINA,42.4,112.9,
53336,HALIUT,CHINA,41.56666666666667,108.51666666666667,
53352,BAILING-MIAO,CHINA,41.7,110.43333333333334,
53391,HUADE,CHINA,41.9,114.0,
53463,HOHHOT,CHINA,40.85,111.56666666666666,
53480,JINING,CHINA,41.03333333333333,113.06666666666666,
53487,DATONG,CHINA,40.083333333333336,113.41666666666667,
53502,JARTAI,CHINA,39.78333333333333,105.75,
53513,LINHE,CHINA,40.733333333333334,107.36666666666666,
53529,OTOG QI,CHINA,39.1,107.98333333333333,
53543,DONGSHENG,CHINA,39.833333333333336,109.98333333333333,
53564,HEQU,CHINA,39.365,111.21166666666667,
53588,WUTAI SHAN,CHINA,38.95,113.51666666666667,
53593,YU XIAN,CHINA,39.833333333333336,114.56666666666666,
53614,YINCHUAN,CHINA,38.46666666666667,106.2,
53646,YULIN,CHINA,38.266666666666666,109.78333333333333,
53673,YUANPING,CHINA,38.75,112.7,
53698,SHIJIAZHUANG,CHINA,38.06666666666667,114.35,
53705,ZHONGNING,CHINA,37.483333333333334,105.68333333333334,
53723,YANCHI,CHINA,37.8,107.38333333333334,
53764,LISHI,CHINA,37.5,111.1,
53772,TAIYUAN,CHINA,37.61666666666667,112.58333333333333,
53772,TAIYUAN,CHINA,37.620555555555555,112.57666666666667,
53787,YUSHE,CHINA,37.06666666666667,112.98333333333333,
53798,XINGTAI,CHINA,37.18083333333333,114.35888888888888,
53845,YAN AN,CHINA,36.583333333333336,109.45,
53845,YAN AN,CHINA,36.56666666666667,109.45,
53863,JIEXIU,CHINA,37.03333333333333,111.91666666666667,
53898,ANYANG,CHINA,36.05,114.13333333333334,
53915,PINGLIANG,CHINA,35.55,106.66666666666667,
53923,XIFENGZHEN,CHINA,35.733333333333334,107.63333333333334,
53959,YUNCHENG,CHINA,35.11138888888889,111.06638888888888,
53975,YANGCHENG,CHINA,35.483333333333334,112.4,
54012,XI UJIMQIN QI,CHINA,44.583333333333336,117.6,
54026,JARUD QI,CHINA,44.56666666666667,120.9,
54027,LINDONG,CHINA,43.983333333333334,119.4,
54049,CHANGLING,CHINA,44.25,123.96666666666667,
54094,MUDANJIANG,CHINA,44.5,129.66666666666666,
54096,SUIFENHE,CHINA,44.38333333333333,131.15,
54102,XILIN HOT,CHINA,43.95,116.11666666666666,
54115,LINXI,CHINA,43.63333333333333,118.03333333333333,
54135,TONGLIAO,CHINA,43.6,122.26666666666667,
54157,SIPING,CHINA,43.18333333333333,124.33333333333333,
54161,CHANGCHUN,CHINA,43.9,125.21666666666667,
54186,DUNHUA,CHINA,43.36666666666667,128.2,
54208,DUOLUN,CHINA,42.18333333333333,116.46666666666667,
54218,CHIFENG,CHINA,42.3,118.83333333333333,
54218,CHIFENG,CHINA,42.3,118.83333333333333,
54226,BUGT,CHINA,42.333333333333336,120.7,
54236,ZHANGWU,CHINA,42.416666666666664,122.53333333333333,
54259,QINGYUAN,CHINA,42.06666666666667,124.86666666666666,
54273,HUADIAN,CHINA,42.983333333333334,126.75,
54292,YANJI,CHINA,42.86666666666667,129.5,
54308,FENGNING,CHINA,41.2,116.63333333333334,
54311,WEICHANG,CHINA,41.93333333333333,117.75,
54324,CHAOYANG,CHINA,41.55,120.45,
54337,JINZHOU,CHINA,41.13333333333333,121.11666666666666,
54342,SHENYANG,CHINA,41.733333333333334,123.51666666666667,
54346,BENXI,CHINA,41.31666666666667,123.78333333333333,
54374,LINJIANG,CHINA,41.8,126.88333333333334,
54377,JI'AN,CHINA,41.15,126.21666666666667,
54386,CHANGBAI,CHINA,41.416666666666664,128.18333333333334,
54401,ZHANGJIAKOU,CHINA,40.78333333333333,114.88333333333334,
54405,HUAILAI,CHINA,40.416666666666664,115.5,
54423,CHENGDE,CHINA,40.96666666666667,117.91666666666667,
54436,QINGLONG,CHINA,40.4,118.95,
54471,YINGKOU,CHINA,40.666666666666664,122.16666666666667,
54493,KUANDIAN,CHINA,40.71666666666667,124.78333333333333,
54497,DANDONG,CHINA,40.05,124.33333333333333,
54511,BEIJING,CHINA,39.93333333333333,116.28333333333333,
54527,TIANJIN,CHINA,39.1,117.16666666666667,
54534,TANGSHAN,CHINA,39.65,118.1,
54539,LETING,CHINA,39.43333333333333,118.9,
54587,HAIYANG DAO,CHINA,39.05,123.21666666666667,
54602,BAODING,CHINA,38.733333333333334,115.48333333333333,
54618,POTOU,CHINA,38.083333333333336,116.55,
54662,DALIAN,CHINA,38.9,121.63333333333334,
54715,LINGXIAN,CHINA,37.333333333333336,116.56666666666666,
54725,HUIMIN,CHINA,37.5,117.53333333333333,
54727,ZHANGQIU,CHINA,36.7,117.55,
54751,CHANG DAO,CHINA,37.93333333333333,120.71666666666667,
54753,LONGKOU,CHINA,37.61666666666667,120.31666666666666,
54776,CHENGSHANTOU,CHINA,37.4,122.68333333333334,
54808,XINXIAN,CHINA,36.233333333333334,115.66666666666667,
54823,JINAN,CHINA,36.6,117.05,
54826,TAI SHAN,CHINA,36.25,117.1,
54836,YIYUAN,CHINA,36.18333333333333,118.15,
54843,WEIFANG,CHINA,36.766666666666666,119.18333333333334,
54857,QINGDAO,CHINA,36.06666666666667,120.33333333333333,
54863,HAIYANG,CHINA,36.766666666666666,121.18333333333334,
54909,DINGTAO,CHINA,35.083333333333336,115.51666666666667,
54916,YANZHOU,CHINA,35.56666666666667,116.85,
54929,FEZXZAN,CHINA,35.25,117.95,
54945,RIZHAO,CHINA,35.43333333333333,119.53333333333333,
55228,SHIQUANHE,CHINA,32.5,80.08333333333333,
55279,BAINGOIN,CHINA,31.366666666666667,90.01666666666667,
55299,NAGQU,CHINA,31.483333333333334,92.06666666666666,
55472,XAINZA,CHINA,30.95,88.63333333333334,
55578,XIGAZE,CHINA,29.25,88.88333333333334,
55591,LHASA,CHINA,29.666666666666668,91.13333333333334,
55664,TINGRI,CHINA,28.633333333333333,87.08333333333333,
55696,LHUNZE,CHINA,28.416666666666668,92.46666666666667,
55773,PAGRI,CHINA,27.733333333333334,89.08333333333333,
56004,TUOTUOHE,CHINA,34.21666666666667,92.43333333333334,
56018,ZADOI,CHINA,32.9,95.3,
56021,QUMARLEB,CHINA,34.13333333333333,95.78333333333333,
56029,YUSHU,CHINA,33.0,96.96666666666667,
56029,YUSHU,CHINA,33.0,96.95,
56033,MADOI,CHINA,34.916666666666664,98.21666666666667,
56046,DARLAG,CHINA,33.75,99.65,
56065,HENAN,CHINA,34.733333333333334,101.6,
56079,RUO'ERGAI,CHINA,33.583333333333336,102.96666666666667,
56080,HEZUO,CHINA,35.0,102.9,
56096,WUDU,CHINA,33.4,104.91666666666667,
56106,SOG XIAN,CHINA,31.883333333333333,93.78333333333333,
56116,DENGQEN,CHINA,31.416666666666668,95.6,
56137,QAMDO,CHINA,31.15,97.16666666666667,
56137,QAMDO,CHINA,31.15,97.16666666666667,
56144,DEGE,CHINA,31.733333333333334,98.56666666666666,
56146,GARZE,CHINA,31.616666666666667,100.0,
56152,SERTAR,CHINA,32.28333333333333,100.33333333333333,
56167,DAWU,CHINA,30.983333333333334,101.11666666666666,
56172,BARKAM,CHINA,31.9,102.23333333333333,
56182,SONGPAN,CHINA,32.666666666666664,103.6,
56187,WENJIANG,CHINA,30.75,103.86666666666666,
56187,WENJIANG,CHINA,30.75,103.86666666666666,
56193,PINGWU,CHINA,32.416666666666664,104.51666666666667,
56196,MIANYANG,CHINA,31.45,104.73333333333333,
56247,BATANG,CHINA,30.0,99.1,
56257,LITANG,CHINA,30.0,100.26666666666667,
56287,YA'AN,CHINA,29.983333333333334,103.0,
56312,NYINGCHI,CHINA,29.566666666666666,94.46666666666667,
56357,DAOCHENG,CHINA,29.05,100.3,
56374,KANGDING,CHINA,30.05,101.96666666666667,
56385,EMEI SHAN,CHINA,29.516666666666666,103.33333333333333,
56444,DEQEN,CHINA,28.45,98.88333333333334,
56462,JIULONG,CHINA,29.0,101.5,
56492,YIBIN,CHINA,28.8,104.6,
56571,XICHANG,CHINA,27.9,102.26666666666667,
56586,ZHAOTONG,CHINA,27.333333333333332,103.75,
56651,LIJING,CHINA,26.833333333333332,100.21666666666667,
56671,HUILI,CHINA,26.65,102.25,
56684,HUIZE,CHINA,26.4,103.25,
56691,WEINING,CHINA,26.866666666666667,104.28333333333333,
56739,TENGCHONG,CHINA,24.984444444444446,98.50555555555556,
56748,BAOSHAN,CHINA,25.116666666666667,99.18333333333334,
56751,DALI,CHINA,25.7,100.18333333333334,
56763,YUANMOU,CHINA,25.733333333333334,101.86666666666666,
56768,CHUXIONG,CHINA,25.016666666666666,101.51666666666667,
56778,KUNMING,CHINA,25.016666666666666,102.68333333333334,
56786,ZHANYI,CHINA,25.583333333333332,103.83333333333333,
56838,RUILI,CHINA,24.0,97.85,
56886,LUXI,CHINA,24.533333333333335,103.76666666666667,
56946,GENGMA,CHINA,23.55,99.4,
56951,LINCANG,CHINA,23.95,100.21666666666667,
56954,LANCANG,CHINA,22.566666666666666,99.93333333333334,
56959,JINGHONG,CHINA,22.0,100.78333333333333,
56964,SIMAO,CHINA,22.766666666666666,100.98333333333333,
56966,YUANJIANG,CHINA,23.6,101.98333333333333,
56969,MENGLA,CHINA,21.5,101.58333333333333,
56977,JIANGCHENG,CHINA,22.616666666666667,101.81666666666666,
56985,MENGZI,CHINA,23.444444444444446,103.32777777777777,
57014,BEIDAO,CHINA,34.56666666666667,105.86666666666666,
57025,FENGXIANG,CHINA,34.516666666666666,107.38333333333334,
57036,XI'AN,CHINA,34.3,108.93333333333334,
57046,HUA SHAN,CHINA,34.483333333333334,110.08333333333333,
57067,LUSHI,CHINA,34.08027777777778,111.07277777777777,
57071,MENGJIN,CHINA,34.81666666666667,112.43333333333334,
57083,ZHENGZHOU,CHINA,34.71666666666667,113.65,
57127,HANZHONG,CHINA,33.06666666666667,107.03333333333333,
57131,JINGHE,CHINA,34.43333333333333,108.96666666666667,
57178,NANYANG,CHINA,33.1,112.48333333333333,
57193,XIHUA,CHINA,33.78333333333333,114.51666666666667,
57237,WANYUAN,CHINA,32.06666666666667,108.03333333333333,
57245,ANKANG,CHINA,32.71666666666667,109.03333333333333,
57259,FANGXIAN,CHINA,32.03333333333333,110.76666666666667,
57265,LAOHEKOU,CHINA,32.43333333333333,111.73333333333333,
57279,ZAOYANG,CHINA,32.15,112.66666666666667,
57290,ZHUMADIAN,CHINA,32.93333333333333,113.91666666666667,
57297,XINYANG,CHINA,32.13333333333333,114.05,
57306,LANGZHONG,CHINA,31.583333333333332,105.96666666666667,
57328,DA XIAN,CHINA,31.2,107.5,
57348,FENGJIE,CHINA,31.016666666666666,109.53333333333333,
57378,ZHONGXIANG,CHINA,31.166666666666668,112.56666666666666,
57399,MACHENG,CHINA,31.133333333333333,114.95,
57411,GAOPING,CHINA,30.745555555555555,106.13194444444444,
57426,LIANGPING,CHINA,30.683333333333334,107.8,
57447,ENSHI,CHINA,30.283333333333335,109.46666666666667,
57461,YICHANG,CHINA,30.733333333333334,111.36666666666666,
57476,JINGZHOU,CHINA,30.35,112.15,
57494,WUHAN,CHINA,30.6,114.05,
57503,NEIJIANG,CHINA,29.616666666666667,105.11666666666666,
57516,CHONGQING,CHINA,29.583333333333332,106.46666666666667,
57516,CHONGQING,CHINA,29.6,106.4,
57554,SANGZHI,CHINA,29.4,110.16666666666667,
57584,YUEYANG,CHINA,29.383333333333333,113.08333333333333,
57598,XIUSHUI,CHINA,29.033333333333335,114.58333333333333,
57604,NAXI,CHINA,28.783333333333335,105.38333333333334,
57633,YOUYANG,CHINA,28.833333333333332,108.76666666666667,
57655,YUANLING,CHINA,28.466666666666665,110.4,
57662,CHANGDE,CHINA,29.05,111.68333333333334,
57679,CHANGSHA,CHINA,28.2,113.08333333333333,
57687,CHANGSHA,CHINA,28.108611111111113,112.7863888888889,
57707,BIJIE,CHINA,27.3,105.23333333333333,
57712,HUICHUAN,CHINA,27.733333333333334,106.95,
57731,SINAN,CHINA,27.95,108.25,
57745,ZHIJIANG,CHINA,27.45,109.68333333333334,
57749,HUAIHUA,CHINA,27.566666666666666,110.0,
57766,SHAOYANG,CHINA,27.183333333333334,111.45,
57776,NANYUE,CHINA,27.3,112.7,
57793,YICHUN,CHINA,27.8,114.38333333333334,
57799,JI'AN,CHINA,27.116666666666667,114.96666666666667,
57816,GUIYANG,CHINA,26.583333333333332,106.73333333333333,
57816,GUIYANG,CHINA,26.483333333333334,106.65,
57832,SANSUI,CHINA,26.966666666666665,108.66666666666667,
57845,TONGDAO,CHINA,26.166666666666668,109.78333333333333,
57853,WUGANG,CHINA,26.733333333333334,110.63333333333334,
57866,LINGLING,CHINA,26.233333333333334,111.61666666666666,
57902,XINGREN,CHINA,25.433333333333334,105.18333333333334,
57916,LUODIAN,CHINA,25.433333333333334,106.76666666666667,
57922,DUSHAN,CHINA,25.833333333333332,107.55,
57932,RONGJIANG,CHINA,25.966666666666665,108.53333333333333,
57957,GUILIN,CHINA,25.333333333333332,110.3,
57972,CHENZHOU,CHINA,25.735277777777778,112.9738888888889,
57993,GANZHOU,CHINA,25.866666666666667,115.0,
57993,GANZHOU,CHINA,25.866666666666667,115.0,
58027,XUZHOU,CHINA,34.28333333333333,117.15,
58040,GANYU,CHINA,34.85,119.13333333333334,
58102,BOXIAN,CHINA,33.79138888888889,115.73527777777778,
58141,HUAIYIN,CHINA,33.63333333333333,118.93333333333334,
58150,SHEYANG,CHINA,33.75,120.3,
58203,FUYANG,CHINA,32.86666666666667,115.73333333333333,
58208,GUSHI,CHINA,32.166666666666664,115.61666666666666,
58221,BENGBU,CHINA,32.85,117.3,
58238,NANJING,CHINA,31.933333333333334,118.9,
58251,DONGTAI,CHINA,32.85,120.28333333333333,
58265,LUSI,CHINA,32.06666666666667,121.6,
58314,HUOSHAN,CHINA,31.4,116.33333333333333,
58321,HEFEI,CHINA,31.783333333333335,117.3,
58338,WUHUXIAN,CHINA,31.15,118.58333333333333,
58345,LIYANG,CHINA,31.433333333333334,119.48333333333333,
58362,SHANGHAI (BAOSHAN),CHINA,31.416666666666668,121.45,
58424,ANQING,CHINA,30.616666666666667,116.96666666666667,
58437,HUANG SHAN,CHINA,30.133333333333333,118.15,
58457,HANGZHOU,CHINA,30.233333333333334,120.16666666666667,
58472,SHENGSI,CHINA,30.733333333333334,122.45,
58477,DINGHAI,CHINA,30.033333333333335,122.11666666666666,
58506,LU SHAN,CHINA,29.583333333333332,115.98333333333333,
58527,JINGDEZHEN,CHINA,29.3,117.2,
58543,CHUN AN,CHINA,29.616666666666667,119.01666666666667,
58556,SHENGXIAN,CHINA,29.6,120.81666666666666,
58569,SHIPU,CHINA,29.2,121.95,
58606,NANCHANG,CHINA,28.6,115.91666666666667,
58633,QU XIAN,CHINA,28.966666666666665,118.86666666666666,
58646,LISHUI,CHINA,28.45,119.91666666666667,
58660,LINHAI,CHINA,28.85,121.13333333333334,
58665,HONGJIA,CHINA,28.616666666666667,121.41666666666667,
58666,DACHEN DAO,CHINA,28.45,121.88333333333334,
58715,NANCHENG,CHINA,27.583333333333332,116.65,
58725,SHAOWU,CHINA,27.333333333333332,117.46666666666667,
58730,WUYISHAN,CHINA,27.766666666666666,118.03333333333333,
58731,PUCHENG,CHINA,27.916666666666668,118.53333333333333,
58752,RUIAN,CHINA,27.783333333333335,120.65,
58754,FUDING,CHINA,27.333333333333332,120.2,
58813,GUANGCHANG,CHINA,26.85,116.33333333333333,
58834,NANPING,CHINA,26.633333333333333,118.15,
58847,FUZHOU,CHINA,26.083333333333332,119.28333333333333,
58849,MAZU,CHINA,26.166666666666668,119.93333333333334,
58853,TAISHAN,CHINA,27.0,120.7,
58911,CHANGTING,CHINA,25.85,116.36666666666666,
58921,YONG'AN,CHINA,25.966666666666665,117.35,
58926,ZHANG PING,CHINA,25.3,117.4,
58931,JIUXIAN SHAN,CHINA,25.716666666666665,118.1,
58944,PINGTAN,CHINA,25.516666666666666,119.78333333333333,
58965,TAOYUAN,CHINA,25.05,121.21666666666667,
